{
  "KSNY": {
    "VenueCode": "KSNY",
    "VenueName": "AGS KRISHNALAYA 4K DOLBY ATMOS: CUDDALORE",
    "VenueAddress": "Imperial Road, Thirupapuliyur, Cuddalore, Tamil Nadu 600001, India",
    "City": "Cuddalore",
    "State": "Tamil Nadu",
    "RegionCode": "CUDD",
    "SubRegionCode": "CUDD",
    "Latitude": "11.7467",
    "Longitude": "79.7575",
    "AvailableFormats": "2D"
  },
  "ACID": {
    "VenueCode": "ACID",
    "VenueName": "Time Cinema: Idar",
    "VenueAddress": "Himatnagar Highway, Sapawada, Idar, Gujarat 383430, India",
    "City": "Idar",
    "State": "Gujarat",
    "RegionCode": "IDAR",
    "SubRegionCode": "IDAR",
    "Latitude": "23.8038",
    "Longitude": "72.9939",
    "AvailableFormats": "2D"
  },
  "LVCD": {
    "VenueCode": "LVCD",
    "VenueName": "Tarun LV Cinemas: Durg",
    "VenueAddress": "Guru Nanak Nagar, Station Road, Near Apsara Talkies, Durg, Chhattisgarh 491001, India",
    "City": "Durg",
    "State": "Chhattisgarh",
    "RegionCode": "DURG",
    "SubRegionCode": "DURG",
    "Latitude": "21.1959",
    "Longitude": "81.2844",
    "AvailableFormats": "2D"
  },
  "KSSB": {
    "VenueCode": "KSSB",
    "VenueName": "K Sera Sera Miniplex: Durg",
    "VenueAddress": "Mahalaxmi Market, Mini Mata Chowk, Pulgaon, Near Kapada Market, Durg, Chhattisgarh 491001, India",
    "City": "Durg",
    "State": "Chhattisgarh",
    "RegionCode": "DURG",
    "SubRegionCode": "DURG",
    "Latitude": "21.1646",
    "Longitude": "81.2613",
    "AvailableFormats": "2D"
  },
  "SWTD": {
    "VenueCode": "SWTD",
    "VenueName": "Swaroop Theatre: Durg",
    "VenueAddress": "Guru Nanak Nagar, Gurudwara Road, Near Axis Bank, Durg, Chhattisgarh 491001, India",
    "City": "Durg",
    "State": "Chhattisgarh",
    "RegionCode": "DURG",
    "SubRegionCode": "DURG",
    "Latitude": "21.1973",
    "Longitude": "81.288",
    "AvailableFormats": "2D"
  },
  "RBMR": {
    "VenueCode": "RBMR",
    "VenueName": "INOX: Reliance Mall, Bhilwara",
    "VenueAddress": "1st Floor, Plot B-1 Suzuki colony, Chittor Road, Reliance Mall, Bhilwara, Rajasthan 311001, India",
    "City": "Bhilwara",
    "State": "Rajasthan",
    "RegionCode": "BHIL",
    "SubRegionCode": "BHIL",
    "Latitude": "25.3357",
    "Longitude": "74.6304",
    "AvailableFormats": "2D|3D"
  },
  "SCBC": {
    "VenueCode": "SCBC",
    "VenueName": "INOX: City Centre Mall, Bhilwara",
    "VenueAddress": "3rd Floor, City Centre Mall, Near Mahaveer Park, Bhopalganj, Bhilwara, Rajasthan 311001, India",
    "City": "Bhilwara",
    "State": "Rajasthan",
    "RegionCode": "BHIL",
    "SubRegionCode": "BHIL",
    "Latitude": "25.3435",
    "Longitude": "74.6383",
    "AvailableFormats": "2D"
  },
  "RKME": {
    "VenueCode": "RKME",
    "VenueName": "RK Moviez: Raigarh",
    "VenueAddress": "Atal Chowk, Bilshpur Marg, Chattamuda Bypass Road, Sangitarai, Raigarh, Chhattisgarh 496001, India",
    "City": "Raigarh",
    "State": "Chhattisgarh",
    "RegionCode": "RAIG",
    "SubRegionCode": "RAIG",
    "Latitude": "21.8762",
    "Longitude": "83.3839",
    "AvailableFormats": "2D"
  },
  "GALX": {
    "VenueCode": "GALX",
    "VenueName": "Galaxy Cinemas (Dolby Atmos): Raigarh",
    "VenueAddress": "3rd Floor, Galaxy Mall, Gauri Shankar Mandir Road, Raigarh, Chhattisgarh 496001, India",
    "City": "Raigarh",
    "State": "Chhattisgarh",
    "RegionCode": "RAIG",
    "SubRegionCode": "RAIG",
    "Latitude": "21.8949",
    "Longitude": "83.3954",
    "AvailableFormats": "2D|3D"
  },
  "GCCH": {
    "VenueCode": "GCCH",
    "VenueName": "Grand Cinemas: Raigarh",
    "VenueAddress": "Grand Mall, 4th Floor, Gouri Shankar Mandir Chowk, Raigarh, Chhattisgarh 496001, India",
    "City": "Raigarh",
    "State": "Chhattisgarh",
    "RegionCode": "RAIG",
    "SubRegionCode": "RAIG",
    "Latitude": "21.8949",
    "Longitude": "83.3958",
    "AvailableFormats": "2D"
  },
  "RATR": {
    "VenueCode": "RATR",
    "VenueName": "Ramniwas Talkies Airconditioned: Raigarh",
    "VenueAddress": "Agrasen Colony, Subhash Road, Mahatma Gandhi Road, Opposite Hotel Rajmahal, Raigarh, Chhattisgarh 496001, India",
    "City": "Raigarh",
    "State": "Chhattisgarh",
    "RegionCode": "RAIG",
    "SubRegionCode": "RAIG",
    "Latitude": "21.8912",
    "Longitude": "83.3952",
    "AvailableFormats": "2D"
  },
  "GTGA": {
    "VenueCode": "GTGA",
    "VenueName": "Ganesh Theatre Laser Projection: Tiptur",
    "VenueAddress": "Bengaluru - Honnavar Road, Edenahalli, Tiptur, Karnataka 572201, India",
    "City": "Tiptur",
    "State": "Karnataka",
    "RegionCode": "TIPT",
    "SubRegionCode": "TIPT",
    "Latitude": "13.2589",
    "Longitude": "76.4848",
    "AvailableFormats": "2D"
  },
  "LTTR": {
    "VenueCode": "LTTR",
    "VenueName": "Lakshmi Talkies: Tiptur",
    "VenueAddress": "Keragodi Road, Chamundeshwari, Tiptur, Karnataka 572201, India",
    "City": "Tiptur",
    "State": "Karnataka",
    "RegionCode": "TIPT",
    "SubRegionCode": "TIPT",
    "Latitude": "13.254",
    "Longitude": "76.4778",
    "AvailableFormats": "2D"
  },
  "TTAA": {
    "VenueCode": "TTAA",
    "VenueName": "Trimurti Theatre Dolby 7.1 LASER Projection",
    "VenueAddress": "National Highway 206, Vinayaka Nagar, Mavinathopu, Tiptur, Karnataka 572202, India",
    "City": "Tiptur",
    "State": "Karnataka",
    "RegionCode": "TIPT",
    "SubRegionCode": "TIPT",
    "Latitude": "13.2601",
    "Longitude": "76.4685",
    "AvailableFormats": "2D"
  },
  "TVHP": {
    "VenueCode": "TVHP",
    "VenueName": "The Vijay Park Multiplex: Injambakkam ECR 4K Atmos",
    "VenueAddress": "No.56, Anna Enclave, Injambakkam, Chennai, Tamil Nadu 600115, India",
    "City": "Chennai",
    "State": "Tamil Nadu",
    "RegionCode": "CHEN",
    "SubRegionCode": "CHEN",
    "Latitude": "12.9164",
    "Longitude": "80.2502",
    "AvailableFormats": "2D"
  },
  "KVCS": {
    "VenueCode": "KVCS",
    "VenueName": "KC(KrishnaveniCinemas) RG3 LASER DOLBYATMOS TNAGAR",
    "VenueAddress": "No 3 Usman Road, T. Nagar, Chennai, Near Mehta Hospitals Pvt Ltd, Chennai, Tamil Nadu 600017, India",
    "City": "Chennai",
    "State": "Tamil Nadu",
    "RegionCode": "CHEN",
    "SubRegionCode": "CHEN",
    "Latitude": "13.0345",
    "Longitude": "80.2306",
    "AvailableFormats": "2D"
  },
  "CBMC": {
    "VenueCode": "CBMC",
    "VenueName": "Cinepolis: BSR Mall, OMR, Thoraipakkam",
    "VenueAddress": "BSR Mall, Thoraipakkam, Seevaram, Oggiyamduraipakkam, Chennai, Tamil Nadu 600097, India",
    "City": "Chennai",
    "State": "Tamil Nadu",
    "RegionCode": "CHEN",
    "SubRegionCode": "CHEN",
    "Latitude": "12.9496",
    "Longitude": "80.2403",
    "AvailableFormats": "3D|2D"
  },
  "MAYJ": {
    "VenueCode": "MAYJ",
    "VenueName": "MAYAJAAL Multiplex: ECR, Chennai",
    "VenueAddress": "No. 34/1, East Coast Road, Kanathur, Near Toll Plaza, Chennai, Tamil Nadu 603112, India",
    "City": "Chennai",
    "State": "Tamil Nadu",
    "RegionCode": "CHEN",
    "SubRegionCode": "CHEN",
    "Latitude": "12.848",
    "Longitude": "80.2401",
    "AvailableFormats": "2D|3D"
  },
  "INPR": {
    "VenueCode": "INPR",
    "VenueName": "INOX: LUXE Phoenix Market City, Velachery",
    "VenueAddress": "Formerly Jazz Cinemas, 2nd Floor, Phoenix Market City, Velachery Main Road, Velachery, Chennai, Tamil Nadu 600042, India",
    "City": "Chennai",
    "State": "Tamil Nadu",
    "RegionCode": "CHEN",
    "SubRegionCode": "CHEN",
    "Latitude": "12.9921",
    "Longitude": "80.2172",
    "AvailableFormats": "2D|3D|IMAX 2D"
  },
  "RSSC": {
    "VenueCode": "RSSC",
    "VenueName": "Rohini Silver Screens: Koyambedu",
    "VenueAddress": "141/2, Poonamallee High Road, Koyembedu, Near St. Thomas College Of Arts And Science, Chennai, Tamil Nadu 600107, India",
    "City": "Chennai",
    "State": "Tamil Nadu",
    "RegionCode": "CHEN",
    "SubRegionCode": "CHEN",
    "Latitude": "13.0758",
    "Longitude": "80.1959",
    "AvailableFormats": "2D|3D"
  },
  "PCAN": {
    "VenueCode": "PCAN",
    "VenueName": "PVR: VR Chennai, Anna Nagar",
    "VenueAddress": "3rd Floor, VR Mall, Metro Zone, No 44, Pillaiyar Koil Street, Jawaharlal Nehru Road, Anna Nagar, Chennai, Tamil Nadu 600040, India",
    "City": "Chennai",
    "State": "Tamil Nadu",
    "RegionCode": "CHEN",
    "SubRegionCode": "CHEN",
    "Latitude": "13.0826",
    "Longitude": "80.1948",
    "AvailableFormats": "2D|3D"
  },
  "PVHR": {
    "VenueCode": "PVHR",
    "VenueName": "PVR: Heritage RSL ECR, Chennai",
    "VenueAddress": "1st Floor, Near Uthandi Toll Gate, Survey No: 3/488B1A And 3/700 No.17. Uthandi Village, Sholinganallur Taluk, East Coast Road, Chennai, Tamil Nadu 600119, India",
    "City": "Chennai",
    "State": "Tamil Nadu",
    "RegionCode": "CHEN",
    "SubRegionCode": "CHEN",
    "Latitude": "12.8627",
    "Longitude": "80.2423",
    "AvailableFormats": "2D|3D"
  },
  "AGSM": {
    "VenueCode": "AGSM",
    "VenueName": "AGS Cinemas: Maduravoyal",
    "VenueAddress": "No 3/47, Alapakkam Main Road, Subramaniapuram, Pallavan Nagar, Chennai, Tamil Nadu 600095, India",
    "City": "Chennai",
    "State": "Tamil Nadu",
    "RegionCode": "CHEN",
    "SubRegionCode": "CHEN",
    "Latitude": "13.0601",
    "Longitude": "80.1648",
    "AvailableFormats": "2D"
  },
  "PVES": {
    "VenueCode": "PVES",
    "VenueName": "PVR: Escape-Express, Avenue Mall",
    "VenueAddress": "3rd Floor, Whites Road, Express Mall, Chennai, Tamil Nadu 600014, India",
    "City": "Chennai",
    "State": "Tamil Nadu",
    "RegionCode": "CHEN",
    "SubRegionCode": "CHEN",
    "Latitude": "13.0589",
    "Longitude": "80.2642",
    "AvailableFormats": "2D"
  },
  "INTO": {
    "VenueCode": "INTO",
    "VenueName": "INOX: The Marina Mall, OMR",
    "VenueAddress": "3rd Floor, The Marina Mall, Old Mahabalipuram Road, Egatoor, Navalur, Chennai, Tamil Nadu 603103, India",
    "City": "Chennai",
    "State": "Tamil Nadu",
    "RegionCode": "CHEN",
    "SubRegionCode": "CHEN",
    "Latitude": "12.8362",
    "Longitude": "80.2296",
    "AvailableFormats": "2D"
  },
  "ACON": {
    "VenueCode": "ACON",
    "VenueName": "AGS Cinemas OMR: Navlur",
    "VenueAddress": "Vivira Mall, 5th Floor, Navalur, Old Mahabalipuram Road, Near ETA Techno Park Entrance, Chennai, Tamil Nadu 603103, India",
    "City": "Chennai",
    "State": "Tamil Nadu",
    "RegionCode": "CHEN",
    "SubRegionCode": "CHEN",
    "Latitude": "12.8505",
    "Longitude": "80.2257",
    "AvailableFormats": "2D"
  },
  "PVPZ": {
    "VenueCode": "PVPZ",
    "VenueName": "PVR: Palazzo,The Nexus Vijaya Mall",
    "VenueAddress": "3rd Floor, 183, Arcot Road, Vadapalani, Nexus Mall, Chennai, Tamil Nadu 600026, India",
    "City": "Chennai",
    "State": "Tamil Nadu",
    "RegionCode": "CHEN",
    "SubRegionCode": "CHEN",
    "Latitude": "13.0503",
    "Longitude": "80.2095",
    "AvailableFormats": "2D|IMAX 2D"
  },
  "PVHC": {
    "VenueCode": "PVHC",
    "VenueName": "PVR: Ampa Mall, Nelson Manickam Road",
    "VenueAddress": "4th Floor, Ampa Skywalk Mall, Nelson Manickam Road, Aminjikarai, Chennai, Tamil Nadu 600029, India",
    "City": "Chennai",
    "State": "Tamil Nadu",
    "RegionCode": "CHEN",
    "SubRegionCode": "CHEN",
    "Latitude": "13.0736",
    "Longitude": "80.2215",
    "AvailableFormats": "2D"
  },
  "KSTK": {
    "VenueCode": "KSTK",
    "VenueName": "Kasi Talkies Dolby Atmos: Ashok Nagar",
    "VenueAddress": "No-4, Pillaiyar Koil St, Jafferkhanpet, Chennai, Tamil Nadu 600083, India",
    "City": "Chennai",
    "State": "Tamil Nadu",
    "RegionCode": "CHEN",
    "SubRegionCode": "CHEN",
    "Latitude": "13.0316",
    "Longitude": "80.2065",
    "AvailableFormats": "2D"
  },
  "PVSR": {
    "VenueCode": "PVSR",
    "VenueName": "PVR: Sathyam, Royapettah",
    "VenueAddress": "8, Thiru Vi Ka Road, Royapettah, Chennai, Tamil Nadu 600014, India",
    "City": "Chennai",
    "State": "Tamil Nadu",
    "RegionCode": "CHEN",
    "SubRegionCode": "CHEN",
    "Latitude": "13.0554",
    "Longitude": "80.258",
    "AvailableFormats": "2D"
  },
  "ACTN": {
    "VenueCode": "ACTN",
    "VenueName": "AGS Cinemas: T. Nagar",
    "VenueAddress": "No: 24/1, GN Chetty Road, T. Nagar, Opposite Dr. M.G.R. Educational and Research Institute, Chennai, Tamil Nadu 600017, India",
    "City": "Chennai",
    "State": "Tamil Nadu",
    "RegionCode": "CHEN",
    "SubRegionCode": "CHEN",
    "Latitude": "13.0474",
    "Longitude": "80.2449",
    "AvailableFormats": "2D"
  },
  "FMCN": {
    "VenueCode": "FMCN",
    "VenueName": "INOX National: Arcot Road",
    "VenueAddress": "Chandra Metro Mall, Arcot Road, Aranganathan Nagar, Valasaravakkam, Near Mega Mart, Chennai, Tamil Nadu 600092, India",
    "City": "Chennai",
    "State": "Tamil Nadu",
    "RegionCode": "CHEN",
    "SubRegionCode": "CHEN",
    "Latitude": "13.0476",
    "Longitude": "80.1904",
    "AvailableFormats": "2D"
  },
  "PABC": {
    "VenueCode": "PABC",
    "VenueName": "PVR: Aerohub, Chennai",
    "VenueAddress": "PVR Cinemas, 2nd Floor, Aerohub East Wing, MLCP Block, Chennai International Airport, GST Road, Meenambakkam, Chennai, Tamil Nadu 600027, India",
    "City": "Chennai",
    "State": "Tamil Nadu",
    "RegionCode": "CHEN",
    "SubRegionCode": "CHEN",
    "Latitude": "12.9809",
    "Longitude": "80.166",
    "AvailableFormats": "2D"
  },
  "SUTC": {
    "VenueCode": "SUTC",
    "VenueName": "Gokulam Cinemas 4K Dolby Atmos: Poonamalle",
    "VenueAddress": "795C,Old Sundar Theatre Complex, Rukmani Nagar, Poonamallee, Near Ambedkar Statue, Chennai, Tamil Nadu 600056, India",
    "City": "Chennai",
    "State": "Tamil Nadu",
    "RegionCode": "CHEN",
    "SubRegionCode": "CHEN",
    "Latitude": "13.049",
    "Longitude": "80.0892",
    "AvailableFormats": "2D"
  },
  "PGMV": {
    "VenueCode": "PGMV",
    "VenueName": "PVR: Grand Mall, Velachery",
    "VenueAddress": "3rd Floor, Grand Square Mall, No.137, Tambaram Velachery Road, V.O.C Nagar, Doctor Seetaram Nagar, Chennai, Tamil Nadu 600042, India",
    "City": "Chennai",
    "State": "Tamil Nadu",
    "RegionCode": "CHEN",
    "SubRegionCode": "CHEN",
    "Latitude": "12.972",
    "Longitude": "80.2204",
    "AvailableFormats": "2D"
  },
  "GKCP": {
    "VenueCode": "GKCP",
    "VenueName": "GK Cinemas RGB + Laser SRL 4D: Porur",
    "VenueAddress": "No 93, Lakshmi Nagar, Near Madurai Kannappar Mess, Chennai, Tamil Nadu 600116, India",
    "City": "Chennai",
    "State": "Tamil Nadu",
    "RegionCode": "CHEN",
    "SubRegionCode": "CHEN",
    "Latitude": "13.0337",
    "Longitude": "80.1611",
    "AvailableFormats": "2D|3D"
  },
  "INCH": {
    "VenueCode": "INCH",
    "VenueName": "INOX: Chennai Citi Centre, Dr. RK Salai",
    "VenueAddress": "3rd Floor, Chennai Citi Center, Doctor Radha Krishnan Salai, Chennai, Tamil Nadu 600004, India",
    "City": "Chennai",
    "State": "Tamil Nadu",
    "RegionCode": "CHEN",
    "SubRegionCode": "CHEN",
    "Latitude": "13.0432",
    "Longitude": "80.2738",
    "AvailableFormats": "2D"
  },
  "MLMT": {
    "VenueCode": "MLMT",
    "VenueName": "Marvel Movie Max 4K Laser Dolby Atmos: Tiruvallur",
    "VenueAddress": "State Highway 57, Tiruvallur, Tiruvallur, Tamil Nadu 602003, India",
    "City": "Tiruvallur",
    "State": "Tamil Nadu",
    "RegionCode": "TRVL",
    "SubRegionCode": "TRVL",
    "Latitude": "13.1159",
    "Longitude": "79.9095",
    "AvailableFormats": "2D|3D"
  },
  "SSCC": {
    "VenueCode": "SSCC",
    "VenueName": "Sivasakthi Cinemas RGB 4K Laser: Padi",
    "VenueAddress": "No 10/341, Banniar Street, Gopal Nagar, Near Suguna Hospital, Chennai, Tamil Nadu 600050, India",
    "City": "Chennai",
    "State": "Tamil Nadu",
    "RegionCode": "CHEN",
    "SubRegionCode": "CHEN",
    "Latitude": "13.095",
    "Longitude": "80.1855",
    "AvailableFormats": "2D"
  },
  "SLMP": {
    "VenueCode": "SLMP",
    "VenueName": "SLB (LakshmiBala) Movie Park 4K Dolby Atmos: Padi",
    "VenueAddress": "No 1 Dr Moorthy Nagar, Padi, Near Happy Hall, Chennai, Tamil Nadu 600050, India",
    "City": "Chennai",
    "State": "Tamil Nadu",
    "RegionCode": "CHEN",
    "SubRegionCode": "CHEN",
    "Latitude": "13.0949",
    "Longitude": "80.1856",
    "AvailableFormats": "2D"
  },
  "VVTN": {
    "VenueCode": "VVTN",
    "VenueName": "Vetrivel 4k Dolby Atmos: Nanganallur, Madipakkam",
    "VenueAddress": "18, M.G.R. Road, Telegraph Colony, Nanganallur, Near The Cake World, Chennai, Tamil Nadu 600061, India",
    "City": "Chennai",
    "State": "Tamil Nadu",
    "RegionCode": "CHEN",
    "SubRegionCode": "CHEN",
    "Latitude": "12.9799",
    "Longitude": "80.1823",
    "AvailableFormats": "2D"
  },
  "SBTR": {
    "VenueCode": "SBTR",
    "VenueName": "SB Cinemas (Sri Bhagavathi) 4K Atmos: Poonamallee",
    "VenueAddress": "No 25 Amman Kovil Street, Kumanachavade, Near Sundhara Vinayagar Subramaniya Swamy Thrukoil, Chennai, Tamil Nadu 600056, India",
    "City": "Chennai",
    "State": "Tamil Nadu",
    "RegionCode": "CHEN",
    "SubRegionCode": "CHEN",
    "Latitude": "13.0443",
    "Longitude": "80.1147",
    "AvailableFormats": "2D"
  },
  "PGRA": {
    "VenueCode": "PGRA",
    "VenueName": "PVR: Grand Galada, Pallavaram",
    "VenueAddress": "Grand Galada Mall, Kohinoor-2, Officers Line, GST Road, Pallavaram, Arumalai Chavadi, Chennai, Tamil Nadu 600043, India",
    "City": "Chennai",
    "State": "Tamil Nadu",
    "RegionCode": "CHEN",
    "SubRegionCode": "CHEN",
    "Latitude": "12.9786",
    "Longitude": "80.1617",
    "AvailableFormats": "2D"
  },
  "PBRM": {
    "VenueCode": "PBRM",
    "VenueName": "PVR: Perambur, Spectrum Mall",
    "VenueAddress": "2nd Floor, Spectrum The Grand Venus Mall,Paper Mills Road, Perambur, Chennai, Tamil Nadu 600011, India",
    "City": "Chennai",
    "State": "Tamil Nadu",
    "RegionCode": "CHEN",
    "SubRegionCode": "CHEN",
    "Latitude": "13.1123",
    "Longitude": "80.2363",
    "AvailableFormats": "2D"
  },
  "GCRP": {
    "VenueCode": "GCRP",
    "VenueName": "Green Cinemas 4K Atmos, PLF: Padi",
    "VenueAddress": "64, Periyar Nagar, Mes Colony, Chennai, Tamil Nadu 600050, India",
    "City": "Chennai",
    "State": "Tamil Nadu",
    "RegionCode": "CHEN",
    "SubRegionCode": "CHEN",
    "Latitude": "13.0999",
    "Longitude": "80.1795",
    "AvailableFormats": "2D"
  },
  "MCSK": {
    "VenueCode": "MCSK",
    "VenueName": "Miraj Cinemas: Sekaran Mall, Chennai",
    "VenueAddress": "Sekaran Mall, 4th and 5th Floor, Survey No.452(3), Village Perumbakkam, Taluk Sholinganallur, Kancheepuram, Chennai, Tamil Nadu 600100, India",
    "City": "Chennai",
    "State": "Tamil Nadu",
    "RegionCode": "CHEN",
    "SubRegionCode": "CHEN",
    "Latitude": "12.9059",
    "Longitude": "80.2092",
    "AvailableFormats": "2D"
  },
  "NLTC": {
    "VenueCode": "NLTC",
    "VenueName": "National Theatre 4K Dolby Atmos: Tambaram",
    "VenueAddress": "Rajaji Road, West Tambaram, Near Lenovo Store, Chennai, Tamil Nadu 600045, India",
    "City": "Chennai",
    "State": "Tamil Nadu",
    "RegionCode": "CHEN",
    "SubRegionCode": "CHEN",
    "Latitude": "12.9291",
    "Longitude": "80.1147",
    "AvailableFormats": "2D"
  },
  "MTLM": {
    "VenueCode": "MTLM",
    "VenueName": "Mani Talkies 2K RGB Laser ATMOS: Minjur",
    "VenueAddress": "27,Thiruvottiyur High Road, Minjur, Tiruvallur, Chennai, Tamil Nadu 601203, India",
    "City": "Chennai",
    "State": "Tamil Nadu",
    "RegionCode": "CHEN",
    "SubRegionCode": "CHEN",
    "Latitude": "13.2795",
    "Longitude": "80.2606",
    "AvailableFormats": "2D"
  },
  "VECT": {
    "VenueCode": "VECT",
    "VenueName": "Vela Cinemas RGB 4KLaser DolbyAtmos: Thiruninravur",
    "VenueAddress": "National Highway 205, Thiruninravur, Chennai, Tamil Nadu 602024, India",
    "City": "Chennai",
    "State": "Tamil Nadu",
    "RegionCode": "CHEN",
    "SubRegionCode": "CHEN",
    "Latitude": "13.1254",
    "Longitude": "80.0179",
    "AvailableFormats": "2D"
  },
  "KMRM": {
    "VenueCode": "KMRM",
    "VenueName": "Kumaran Theatre PROVA 4K DOLBY ATMOS: Madipakkam",
    "VenueAddress": "No 364, Mount - Madipakkam Road, Ullagaram, Puzhuthivakkam, Opposite to Muthoot Finance, Chennai, Tamil Nadu 600091, India",
    "City": "Chennai",
    "State": "Tamil Nadu",
    "RegionCode": "CHEN",
    "SubRegionCode": "CHEN",
    "Latitude": "12.9718",
    "Longitude": "80.1922",
    "AvailableFormats": "2D"
  },
  "RACM": {
    "VenueCode": "RACM",
    "VenueName": "RAMDASS CINEMAS A/C DTS: Sunguvarchatram",
    "VenueAddress": "State Highway 120, Rajiv Gandhi Street, Sunguvarchatram, Tamil Nadu 602106, India",
    "City": "Sunguvarchatram",
    "State": "Tamil Nadu",
    "RegionCode": "KNPM",
    "SubRegionCode": "KNPM",
    "Latitude": "12.9289",
    "Longitude": "79.8752",
    "AvailableFormats": "2D"
  },
  "WSTC": {
    "VenueCode": "WSTC",
    "VenueName": "Woodlands Theatre: Chennai",
    "VenueAddress": "25, Westcott Road, Royapettah, Near Hindustan Petroleum Petrol Pump, Chennai, Tamil Nadu 600014, India",
    "City": "Chennai",
    "State": "Tamil Nadu",
    "RegionCode": "CHEN",
    "SubRegionCode": "CHEN",
    "Latitude": "13.0565",
    "Longitude": "80.2648",
    "AvailableFormats": "2D"
  },
  "PVTJ": {
    "VenueCode": "PVTJ",
    "VenueName": "PVR: Theyagaraja, Thiruvanmiyur, Chennai",
    "VenueAddress": "60, LB Road, Ranganatha Puram, Thiruvanmiyur, Chennai, Tamil Nadu 600041, India",
    "City": "Chennai",
    "State": "Tamil Nadu",
    "RegionCode": "CHEN",
    "SubRegionCode": "CHEN",
    "Latitude": "12.9895",
    "Longitude": "80.2564",
    "AvailableFormats": "2D"
  },
  "MMKC": {
    "VenueCode": "MMKC",
    "VenueName": "Medavakkam Kumaran Cinemas RGB LASER Dolby Atmos",
    "VenueAddress": "No. 4/347 Velachery Main Road, Medavakkam, Chennai, Tamil Nadu 600100, India",
    "City": "Chennai",
    "State": "Tamil Nadu",
    "RegionCode": "CHEN",
    "SubRegionCode": "CHEN",
    "Latitude": "12.9198",
    "Longitude": "80.1957",
    "AvailableFormats": "2D"
  },
  "SVWT": {
    "VenueCode": "SVWT",
    "VenueName": "Vigneshwara Theatre RGB Laser: Poonamallee",
    "VenueAddress": "MG Nagar,Trunk Road,Opposite to Poonamallee fort, Chennai, Tamil Nadu 600123, India",
    "City": "Chennai",
    "State": "Tamil Nadu",
    "RegionCode": "CHEN",
    "SubRegionCode": "CHEN",
    "Latitude": "13.0504",
    "Longitude": "80.0938",
    "AvailableFormats": "2D"
  },
  "JOTG": {
    "VenueCode": "JOTG",
    "VenueName": "Jothi Theatre 4K A/c DTS: ST Thomas Mount",
    "VenueAddress": "Alandur - Parangimalai, Parade Road, Near Kathipara Junction, Chennai, Tamil Nadu 600016, India",
    "City": "Chennai",
    "State": "Tamil Nadu",
    "RegionCode": "CHEN",
    "SubRegionCode": "CHEN",
    "Latitude": "13.0061",
    "Longitude": "80.2014",
    "AvailableFormats": "2D"
  },
  "VCDK": {
    "VenueCode": "VCDK",
    "VenueName": "Venkateswara Cinemas DOLBY ATMOS: Kundrathur",
    "VenueAddress": "Devi Nagar, Muruga Kovil Road, Jaganathapuram, Sikkarayapuram, Kundrathur, Chennai, Tamil Nadu 600069, India",
    "City": "Chennai",
    "State": "Tamil Nadu",
    "RegionCode": "CHEN",
    "SubRegionCode": "CHEN",
    "Latitude": "12.9955",
    "Longitude": "80.0956",
    "AvailableFormats": "2D"
  },
  "ANAC": {
    "VenueCode": "ANAC",
    "VenueName": "Anna Cinemas: Mount Road",
    "VenueAddress": "New No 21,Anna Salai, Mount Road, Near Gee Gee Complex, Chennai, Tamil Nadu 600014, India",
    "City": "Chennai",
    "State": "Tamil Nadu",
    "RegionCode": "CHEN",
    "SubRegionCode": "CHEN",
    "Latitude": "13.0672",
    "Longitude": "80.2713",
    "AvailableFormats": "2D"
  },
  "GRTC": {
    "VenueCode": "GRTC",
    "VenueName": "GanapathyRam Theatre 4K Dolby 7.1: Chennai",
    "VenueAddress": "101 Lattice Bridge Road, Adyar, Kamaraj Nagar 1st Cross St, Chennai, Tamil Nadu 600020, India",
    "City": "Chennai",
    "State": "Tamil Nadu",
    "RegionCode": "CHEN",
    "SubRegionCode": "CHEN",
    "Latitude": "13.0039",
    "Longitude": "80.2563",
    "AvailableFormats": "2D"
  },
  "JTPL": {
    "VenueCode": "JTPL",
    "VenueName": "Janatha Theatre 4K AC DTS (JBL AUDIO): Pallavaram",
    "VenueAddress": "Srinivasa Perumal Koil, Rajendra Nagar, Pallavaram, Behind Pallavaram Bus Stop, Chennai, Tamil Nadu 600043, India",
    "City": "Chennai",
    "State": "Tamil Nadu",
    "RegionCode": "CHEN",
    "SubRegionCode": "CHEN",
    "Latitude": "12.9697",
    "Longitude": "80.1494",
    "AvailableFormats": "2D"
  },
  "VRCP": {
    "VenueCode": "VRCP",
    "VenueName": "VR Cinemas RGB 4K LASER DOLBY ATMOS: Pattabiram",
    "VenueAddress": "Tiruvallur High Road, Pattabiram, Chennai, Tamil Nadu 600072, India",
    "City": "Chennai",
    "State": "Tamil Nadu",
    "RegionCode": "CHEN",
    "SubRegionCode": "CHEN",
    "Latitude": "13.1207",
    "Longitude": "80.0636",
    "AvailableFormats": "2D"
  },
  "REMC": {
    "VenueCode": "REMC",
    "VenueName": "Remy Cinemas A/C DTS 2K 3D Laser: Avadi",
    "VenueAddress": "2nd Main Road, JB Estate, Chelliamman Kovil Street, Next to Bank Of Baroda, Chennai, Tamil Nadu 600054, India",
    "City": "Chennai",
    "State": "Tamil Nadu",
    "RegionCode": "CHEN",
    "SubRegionCode": "CHEN",
    "Latitude": "13.1125",
    "Longitude": "80.1096",
    "AvailableFormats": "2D"
  },
  "ATMG": {
    "VenueCode": "ATMG",
    "VenueName": "Anand Theatre Madhuranthagam RGB LASER 4k",
    "VenueAddress": "National Highway Service Road, Maduranthakam, Tamil Nadu, Near Lake View Hotal, Chennai, Tamil Nadu 603306, India",
    "City": "Chennai",
    "State": "Tamil Nadu",
    "RegionCode": "CHEN",
    "SubRegionCode": "CHEN",
    "Latitude": "12.5051",
    "Longitude": "79.8799",
    "AvailableFormats": "2D"
  },
  "GAHC": {
    "VenueCode": "GAHC",
    "VenueName": "Gopalakrishna A/C 2K DOLBY 7.1-Karanodai(Redhills)",
    "VenueAddress": "Sholavaram, Karanodai, Chennai, Tamil Nadu 600067, India",
    "City": "Chennai",
    "State": "Tamil Nadu",
    "RegionCode": "CHEN",
    "SubRegionCode": "CHEN",
    "Latitude": "13.2499",
    "Longitude": "80.1568",
    "AvailableFormats": "2D"
  },
  "JTMV": {
    "VenueCode": "JTMV",
    "VenueName": "VVM Cinemas 3D 2K AC Dts, Ponneri: Chennai",
    "VenueAddress": "57,Newcar Street, Thiruvallur Dist,NGO Nagar Extension,Chennai, Tamil Nadu 601204, India",
    "City": "Chennai",
    "State": "Tamil Nadu",
    "RegionCode": "CHEN",
    "SubRegionCode": "CHEN",
    "Latitude": "13.3357",
    "Longitude": "80.1947",
    "AvailableFormats": "2D"
  },
  "OMTT": {
    "VenueCode": "OMTT",
    "VenueName": "Odiyan Mani Theatre 2k A/c Dolby: Thiruvottiyur",
    "VenueAddress": "W Mada St, Kaladipet, Tiruvottiyur, Chennai, Tamil Nadu 600019, India",
    "City": "Chennai",
    "State": "Tamil Nadu",
    "RegionCode": "CHEN",
    "SubRegionCode": "CHEN",
    "Latitude": "13.1251",
    "Longitude": "80.2898",
    "AvailableFormats": "2D"
  },
  "GKKC": {
    "VenueCode": "GKKC",
    "VenueName": "Sri Devi Karumari Cinemas RGB LASER DOLBY ATMOS",
    "VenueAddress": "No.71/2, Yadaval Street,Virugambakkam, Chennai, Tamil Nadu 600092, India",
    "City": "Chennai",
    "State": "Tamil Nadu",
    "RegionCode": "CHEN",
    "SubRegionCode": "CHEN",
    "Latitude": "13.0497",
    "Longitude": "80.1934",
    "AvailableFormats": "2D"
  },
  "BBPO": {
    "VenueCode": "BBPO",
    "VenueName": "Bharath Cinemas: Puttur",
    "VenueAddress": "2nd Floor, GL One Mall, Pangalai Road, Puttur (Karnataka), Karnataka 574201, India",
    "City": "Puttur (Karnataka)",
    "State": "Karnataka",
    "RegionCode": "PTTU",
    "SubRegionCode": "PTTU",
    "Latitude": "12.7596",
    "Longitude": "75.2062",
    "AvailableFormats": "2D|3D"
  },
  "ZCBB": {
    "VenueCode": "ZCBB",
    "VenueName": "B Cinemas Vylathoor,4K RGB Laser 3D Dolby Atmos",
    "VenueAddress": "Anjoor - Kunnamkulam Road, Nambeeshanpadi, Anjoor, Kunnamkulam, Kerala 679563, India",
    "City": "Kunnamkulam",
    "State": "Kerala",
    "RegionCode": "THSR",
    "SubRegionCode": "THSR",
    "Latitude": "10.6381",
    "Longitude": "76.0242",
    "AvailableFormats": "2D"
  },
  "DCGO": {
    "VenueCode": "DCGO",
    "VenueName": "Devaky Cinemas 2K 3D Dolby Atmos: Guruvayoor",
    "VenueAddress": "Opposite Temple Police Station, South Nada, Guruvayur, Kerala 680101, India",
    "City": "Guruvayur",
    "State": "Kerala",
    "RegionCode": "GUVY",
    "SubRegionCode": "GUVY",
    "Latitude": "10.5918",
    "Longitude": "76.0405",
    "AvailableFormats": "2D"
  },
  "STOP": {
    "VenueCode": "STOP",
    "VenueName": "Sheela Talkies: Dhampur",
    "VenueAddress": "State Highway 49, Near Shubham Hospital, Dhampur, Uttar Pradesh 246761, India",
    "City": "Dhampur",
    "State": "Uttar Pradesh",
    "RegionCode": "DHPR",
    "SubRegionCode": "DHPR",
    "Latitude": "29.2996",
    "Longitude": "78.5135",
    "AvailableFormats": "2D"
  },
  "BSPC": {
    "VenueCode": "BSPC",
    "VenueName": "Bansal Cineplex: Dhampur",
    "VenueAddress": "Near Champa Devi Temple, Udaipur, Dhampur, Uttar Pradesh 246761, India",
    "City": "Dhampur",
    "State": "Uttar Pradesh",
    "RegionCode": "DHPR",
    "SubRegionCode": "DHPR",
    "Latitude": "29.3028",
    "Longitude": "78.5065",
    "AvailableFormats": "2D"
  },
  "SOND": {
    "VenueCode": "SOND",
    "VenueName": "Sond Cinema: Ahmedgarh",
    "VenueAddress": "Near Sond Ice Factory, Jandali Road, Near Akshardham Mandir, Ahmedgarh, Punjab 148021, India",
    "City": "Ahmedgarh",
    "State": "Punjab",
    "RegionCode": "AHMG",
    "SubRegionCode": "AHMG",
    "Latitude": "30.6721",
    "Longitude": "75.8267",
    "AvailableFormats": "2D"
  },
  "GCKG": {
    "VenueCode": "GCKG",
    "VenueName": "Gold Cinema: Kokrajhar",
    "VenueAddress": "Dimalgaon, Near Jwngma Hotel, Kokrajhar, Assam 783370, India",
    "City": "Kokrajhar",
    "State": "Assam",
    "RegionCode": "KKJR",
    "SubRegionCode": "KKJR",
    "Latitude": "26.4275",
    "Longitude": "90.2815",
    "AvailableFormats": "2D"
  },
  "PCDB": {
    "VenueCode": "PCDB",
    "VenueName": "Hari Prakash Cineplex: Gurudwara Road, Dabra",
    "VenueAddress": "Jawahar Ganj, Gurudwara Road, Dabra, Madhya Pradesh 475110, India",
    "City": "Dabra",
    "State": "Madhya Pradesh",
    "RegionCode": "DABR",
    "SubRegionCode": "DABR",
    "Latitude": "25.8839",
    "Longitude": "78.3284",
    "AvailableFormats": "2D"
  },
  "PGRC": {
    "VenueCode": "PGRC",
    "VenueName": "PGR Cinemas A/C 4K Dolby Atmos: Tirupati",
    "VenueAddress": "Tata Nagar, Near Mahatma Gandhi Junction, Tirupati, Andhra Pradesh 517501, India",
    "City": "Tirupati",
    "State": "Andhra Pradesh",
    "RegionCode": "TIRU",
    "SubRegionCode": "TIRU",
    "Latitude": "13.6296",
    "Longitude": "79.4245",
    "AvailableFormats": "2D"
  },
  "CSCT": {
    "VenueCode": "CSCT",
    "VenueName": "CS Cinemas (Devendra Theater) A/C 4K Dolby Atmos",
    "VenueAddress": "RS Gardens, Leela Mahal Road, Tirupati, Andhra Pradesh 517501, India",
    "City": "Tirupati",
    "State": "Andhra Pradesh",
    "RegionCode": "TIRU",
    "SubRegionCode": "TIRU",
    "Latitude": "13.6385",
    "Longitude": "79.4235",
    "AvailableFormats": "2D"
  },
  "STDA": {
    "VenueCode": "STDA",
    "VenueName": "NVR Sandhya Theater 4K Dolby Atmos: Tirupati",
    "VenueAddress": "13-6-751, Jayasam Road, Mallaiah Gunta Katta, Tata Nagar, Tirupati, Andhra Pradesh 517501, India",
    "City": "Tirupati",
    "State": "Andhra Pradesh",
    "RegionCode": "TIRU",
    "SubRegionCode": "TIRU",
    "Latitude": "13.6306",
    "Longitude": "79.4254",
    "AvailableFormats": "2D"
  },
  "JAYD": {
    "VenueCode": "JAYD",
    "VenueName": "NVR Jaysyam A/C 4K Dolby Atmos: Tirupati",
    "VenueAddress": "Mallaiah Gunta Katta, Tata Nagar, Tirupati, Andhra Pradesh 517501, India",
    "City": "Tirupati",
    "State": "Andhra Pradesh",
    "RegionCode": "TIRU",
    "SubRegionCode": "TIRU",
    "Latitude": "13.631",
    "Longitude": "79.4247",
    "AvailableFormats": "2D"
  },
  "PPPD": {
    "VenueCode": "PPPD",
    "VenueName": "Padma Picture Palace A/C 4K Dolby Atmos: Renigunta",
    "VenueAddress": "Gowri Nagar, GM Street, Tirupati, Andhra Pradesh 517520, India",
    "City": "Tirupati",
    "State": "Andhra Pradesh",
    "RegionCode": "TIRU",
    "SubRegionCode": "TIRU",
    "Latitude": "13.6341",
    "Longitude": "79.5046",
    "AvailableFormats": "2D|3D"
  },
  "KRTT": {
    "VenueCode": "KRTT",
    "VenueName": "KrishnaTeja A/C 4K Dolby(Newly Renovated):Tirupati",
    "VenueAddress": "Jayasam Road, Tata Nagar, Tirupati, Andhra Pradesh 517501, India",
    "City": "Tirupati",
    "State": "Andhra Pradesh",
    "RegionCode": "TIRU",
    "SubRegionCode": "TIRU",
    "Latitude": "13.6303",
    "Longitude": "79.4239",
    "AvailableFormats": "3D"
  },
  "PTDT": {
    "VenueCode": "PTDT",
    "VenueName": "Pratap Theater A/c 4K Dolby Atmos: Tirupati",
    "VenueAddress": "Jayasam Road, Tata Nagar, Tirupati, Andhra Pradesh 517501, India",
    "City": "Tirupati",
    "State": "Andhra Pradesh",
    "RegionCode": "TIRU",
    "SubRegionCode": "TIRU",
    "Latitude": "13.6302",
    "Longitude": "79.4239",
    "AvailableFormats": "2D"
  },
  "TRSV": {
    "VenueCode": "TRSV",
    "VenueName": "SV Cinemas(Ambica) A/C 4K Dolby Atmos: Chandragiri",
    "VenueAddress": "Tirupati Road, Reddivaripalle, Near Chandragiri Bus Stop, Tirupati, Andhra Pradesh 517101, India",
    "City": "Tirupati",
    "State": "Andhra Pradesh",
    "RegionCode": "TIRU",
    "SubRegionCode": "TIRU",
    "Latitude": "13.5859",
    "Longitude": "79.3135",
    "AvailableFormats": "2D"
  },
  "VELR": {
    "VenueCode": "VELR",
    "VenueName": "NVR Velrams A/c 4K Dolby Surround: Tirupati",
    "VenueAddress": "Mallaiah Gunta Katta, Jayasam Road, Tata Nagar, Tirupati, Andhra Pradesh 517501, India",
    "City": "Tirupati",
    "State": "Andhra Pradesh",
    "RegionCode": "TIRU",
    "SubRegionCode": "TIRU",
    "Latitude": "13.6309",
    "Longitude": "79.4247",
    "AvailableFormats": "3D"
  },
  "STDT": {
    "VenueCode": "STDT",
    "VenueName": "Srinivas Teja A/C DTS: Tirupati",
    "VenueAddress": "Jayasam Road, Tata Nagar, Tirupati, Andhra Pradesh 517501, India",
    "City": "Tirupati",
    "State": "Andhra Pradesh",
    "RegionCode": "TIRU",
    "SubRegionCode": "TIRU",
    "Latitude": "13.6301",
    "Longitude": "79.4239",
    "AvailableFormats": "2D|3D"
  },
  "SATT": {
    "VenueCode": "SATT",
    "VenueName": "Srinivasa A/C Theatre: Tangutur",
    "VenueAddress": "12-289, Vaninagar, Tanguturu - Kondapi Road, Near RR Shopping Complex, Tanguturu, Andhra Pradesh 523274, India",
    "City": "Tanguturu",
    "State": "Andhra Pradesh",
    "RegionCode": "TANG",
    "SubRegionCode": "TANG",
    "Latitude": "15.3408",
    "Longitude": "80.0357",
    "AvailableFormats": "2D"
  },
  "KCPM": {
    "VenueCode": "KCPM",
    "VenueName": "Krishna Cineplex: 4K RGB Laser 3D Dolby Atmos",
    "VenueAddress": "Puthiya Gate, Koppam - Muthuthala Road, Perumudiyur P.O, Pattambi, Kerala 679303, India",
    "City": "Pattambi",
    "State": "Kerala",
    "RegionCode": "PTMB",
    "SubRegionCode": "PTMB",
    "Latitude": "10.8016",
    "Longitude": "76.1664",
    "AvailableFormats": "2D"
  },
  "MFCP": {
    "VenueCode": "MFCP",
    "VenueName": "Magic Frames Cinemas 4K Laser 3D Atmos: Pattambi",
    "VenueAddress": "Magic Frames, Vadakumuri, Pattambi, Kerala 679303, India",
    "City": "Pattambi",
    "State": "Kerala",
    "RegionCode": "PTMB",
    "SubRegionCode": "PTMB",
    "Latitude": "10.8044",
    "Longitude": "76.1948",
    "AvailableFormats": "2D"
  },
  "AXMP": {
    "VenueCode": "AXMP",
    "VenueName": "Alex Movies: Christe Rbe Laser Pattambi",
    "VenueAddress": "Alex Theatre, Kaithali Temple Road, Near ICICI Bank Pattambi, Pattambi, Kerala 679303, India",
    "City": "Pattambi",
    "State": "Kerala",
    "RegionCode": "PTMB",
    "SubRegionCode": "PTMB",
    "Latitude": "10.8064",
    "Longitude": "76.1899",
    "AvailableFormats": "2D"
  },
  "LTVB": {
    "VenueCode": "LTVB",
    "VenueName": "Sri Lakshmi Theatre: Vijayapura (Bijapur)",
    "VenueAddress": "Godbole Mala, M. G. Road, Near Gandhi Chowk Police Station, Opposite Axis Bank, Vijayapura (Bijapur), Karnataka 586101, India",
    "City": "Vijayapura (Bijapur)",
    "State": "Karnataka",
    "RegionCode": "VJPR",
    "SubRegionCode": "VJPR",
    "Latitude": "16.8284",
    "Longitude": "75.7165",
    "AvailableFormats": "2D"
  },
  "APST": {
    "VenueCode": "APST",
    "VenueName": "Apsara Cineplex 70 mm: Bijapur",
    "VenueAddress": "Jadar Galli, Near Loyola Institute, Vijayapura, Karnataka 586101, India",
    "City": "Vijayapura",
    "State": "Karnataka",
    "RegionCode": "VJPR",
    "SubRegionCode": "VJPR",
    "Latitude": "16.8319",
    "Longitude": "75.7238",
    "AvailableFormats": "2D"
  },
  "DTVP": {
    "VenueCode": "DTVP",
    "VenueName": "Dreamland A/C Dolby Theatre: Vijayapura (Bijapur)",
    "VenueAddress": "Tippu Sultan Circle, D.C Office Road, Near KSRTC Bus Stand, Vijayapura, Karnataka 586101, India",
    "City": "Vijayapura",
    "State": "Karnataka",
    "RegionCode": "VJPR",
    "SubRegionCode": "VJPR",
    "Latitude": "16.8269",
    "Longitude": "75.7164",
    "AvailableFormats": "2D"
  },
  "AAVB": {
    "VenueCode": "AAVB",
    "VenueName": "Amir Talkies: Vijayapura (Bijapur)",
    "VenueAddress": "Ram Mandir Road, Behind Sideshwara Gudi, Sholapur, Vijayapura (Bijapur), Karnataka 586101, India",
    "City": "Vijayapura (Bijapur)",
    "State": "Karnataka",
    "RegionCode": "VJPR",
    "SubRegionCode": "VJPR",
    "Latitude": "16.8338",
    "Longitude": "75.7151",
    "AvailableFormats": "2D"
  },
  "PMBL": {
    "VenueCode": "PMBL",
    "VenueName": "Purnam Multiplex: Bilaspur",
    "VenueAddress": "Purnam The Mall, Kosrian Sector, Shimla-Kangra Road, Bilaspur (Himachal Pradesh), Himachal Pradesh 174001, India",
    "City": "Bilaspur (Himachal Pradesh)",
    "State": "Himachal Pradesh",
    "RegionCode": "BIPS",
    "SubRegionCode": "BIPS",
    "Latitude": "31.3401",
    "Longitude": "76.7646",
    "AvailableFormats": "2D"
  },
  "STKC": {
    "VenueCode": "STKC",
    "VenueName": "Sri Venkatarama Picture Palace: Nereducherla",
    "VenueAddress": "Venkatarama Theatre Road, Nereducharla, Nereducharla, Telangana 508218, India",
    "City": "Nereducharla",
    "State": "Telangana",
    "RegionCode": "NDRL",
    "SubRegionCode": "NDRL",
    "Latitude": "16.8845",
    "Longitude": "79.6962",
    "AvailableFormats": "2D"
  },
  "KKMA": {
    "VenueCode": "KKMA",
    "VenueName": "The Cine Station: Silvassa",
    "VenueAddress": "Prithviraj Chauhan Marg, Gujarat State Highway 185p, ,Opposite Yatri Niwas Hotel, Silvassa, Gujarat 396230, India",
    "City": "Silvassa",
    "State": "Gujarat",
    "RegionCode": "SILV",
    "SubRegionCode": "SILV",
    "Latitude": "20.2716",
    "Longitude": "72.9916",
    "AvailableFormats": "2D"
  },
  "NMXS": {
    "VenueCode": "NMXS",
    "VenueName": "New Max Cinema: Silvassa",
    "VenueAddress": "Plot No. 2, Sr. No. 876/1/1/3, Bavisa Falia, Near Shree Sai Mobile Shop, Silvassa, Gujarat 396230, India",
    "City": "Silvassa",
    "State": "Gujarat",
    "RegionCode": "SILV",
    "SubRegionCode": "SILV",
    "Latitude": "20.2751",
    "Longitude": "73.0098",
    "AvailableFormats": "2D"
  },
  "DECX": {
    "VenueCode": "DECX",
    "VenueName": "90 Degree Cineplex: Jhajha",
    "VenueAddress": "Purani Bazar, Jamui, Near Gandhi Chowk, Jhajha, Bihar 811308, India",
    "City": "Jhajha",
    "State": "Bihar",
    "RegionCode": "JHAA",
    "SubRegionCode": "JHAA",
    "Latitude": "24.7729",
    "Longitude": "86.3861",
    "AvailableFormats": "2D"
  },
  "MAPJ": {
    "VenueCode": "MAPJ",
    "VenueName": "Maa Lakhi Cineplex (70mm, Dolby 5.1): Jhajha",
    "VenueAddress": "No 827, Bus stand Road, Jhajha, Bihar 811308, India",
    "City": "Jhajha",
    "State": "Bihar",
    "RegionCode": "JHAA",
    "SubRegionCode": "JHAA",
    "Latitude": "24.7735",
    "Longitude": "86.3751",
    "AvailableFormats": "2D"
  },
  "SMLK": {
    "VenueCode": "SMLK",
    "VenueName": "Samuel Multiplex: Khopoli",
    "VenueAddress": "Samuels Mall, L.B. Shastri Nagar, National Highway 4, Khopoli, Maharashtra 410203, India",
    "City": "Khopoli",
    "State": "Maharashtra",
    "RegionCode": "KHOP",
    "SubRegionCode": "KHOP",
    "Latitude": "18.7942",
    "Longitude": "73.3341",
    "AvailableFormats": "2D"
  },
  "PMPU": {
    "VenueCode": "PMPU",
    "VenueName": "Planet Movieplex: Siddhpur",
    "VenueAddress": "Prayosha Plaza, Ahmedabad Palanpur Highway Road, Opposite GIDC, Siddhpur, Gujarat 384151, India",
    "City": "Siddhpur",
    "State": "Gujarat",
    "RegionCode": "SIDD",
    "SubRegionCode": "SIDD",
    "Latitude": "23.9396",
    "Longitude": "72.3646",
    "AvailableFormats": "2D"
  },
  "AFST": {
    "VenueCode": "AFST",
    "VenueName": "Ajayshree Films (Gokul Theater): Siddhpur",
    "VenueAddress": "Gokul Highway Food Mall, Highway Road, Near Sujanpur Patia, Siddhpur, Gujarat 384151, India",
    "City": "Siddhpur",
    "State": "Gujarat",
    "RegionCode": "SIDD",
    "SubRegionCode": "SIDD",
    "Latitude": "23.9425",
    "Longitude": "72.3653",
    "AvailableFormats": "2D"
  },
  "SRSY": {
    "VenueCode": "SRSY",
    "VenueName": "Sri Swamy Satyanarayana Theatre: Krishnadevipeta",
    "VenueAddress": "No. 13-18, Main Road, A.L Puram, Bowdara Junction, K.D Peta, Andhra Pradesh 531084, India",
    "City": "K.D Peta",
    "State": "Andhra Pradesh",
    "RegionCode": "PTDK",
    "SubRegionCode": "PTDK",
    "Latitude": "17.6743",
    "Longitude": "82.377",
    "AvailableFormats": "2D"
  },
  "RMKT": {
    "VenueCode": "RMKT",
    "VenueName": "Ramakrishna Theatre DTS 7.1 Surround: Watrab",
    "VenueAddress": "Koomapatty Road, Watrap, Srivilliputhur, Tamil Nadu 626132, India",
    "City": "Srivilliputhur",
    "State": "Tamil Nadu",
    "RegionCode": "SRIV",
    "SubRegionCode": "SRIV",
    "Latitude": "9.63639",
    "Longitude": "77.6343",
    "AvailableFormats": "2D"
  },
  "RAJX": {
    "VenueCode": "RAJX",
    "VenueName": "Rajnish Cineplex: Darbhanga",
    "VenueAddress": "RB Palace, Ward No 31 old and 41 New, Mohalla Belwaganj, Ismailganj Road, Laheraisarai, Opposite HDFC Bank ATM, Darbhanga, Bihar 846004, India",
    "City": "Darbhanga",
    "State": "Bihar",
    "RegionCode": "DARB",
    "SubRegionCode": "DARB",
    "Latitude": "26.1276",
    "Longitude": "85.8954",
    "AvailableFormats": "2D"
  },
  "UVCD": {
    "VenueCode": "UVCD",
    "VenueName": "UVT Cine Cafe: Darbhanga",
    "VenueAddress": "Musa Shah City Centre, Tower Chowk, Bada Bazar, Darbhanga, Bihar 846004, India",
    "City": "Darbhanga",
    "State": "Bihar",
    "RegionCode": "DARB",
    "SubRegionCode": "DARB",
    "Latitude": "26.1545",
    "Longitude": "85.8921",
    "AvailableFormats": "2D"
  },
  "LISA": {
    "VenueCode": "LISA",
    "VenueName": "Lisa Multiplex Screen 1: Sehore",
    "VenueAddress": "42, Sindhi Colony, Main Road, Near State bank of India, Next to City Post Office, Sehore, Madhya Pradesh 466001, India",
    "City": "Sehore",
    "State": "Madhya Pradesh",
    "RegionCode": "SEHO",
    "SubRegionCode": "SEHO",
    "Latitude": "23.2016",
    "Longitude": "77.0796",
    "AvailableFormats": "2D"
  },
  "LMSR": {
    "VenueCode": "LMSR",
    "VenueName": "Lisa Multiplex Screen 2: Sehore",
    "VenueAddress": "42, Sindhi Colony, Main Road, Near State bank of India, Next to City Post Office, Sehore, Madhya Pradesh 466001, India",
    "City": "Sehore",
    "State": "Madhya Pradesh",
    "RegionCode": "SEHO",
    "SubRegionCode": "SEHO",
    "Latitude": "23.2016",
    "Longitude": "77.0796",
    "AvailableFormats": "2D"
  },
  "PMCA": {
    "VenueCode": "PMCA",
    "VenueName": "Prime Cinema: Rajpura",
    "VenueAddress": "Prime Hub, Pehar Kalan, NH 7, Near Domino`s Pizza Prime Hub, Rajpura, Punjab 140401, India",
    "City": "Rajpura",
    "State": "Punjab",
    "RegionCode": "RARA",
    "SubRegionCode": "RARA",
    "Latitude": "30.5055",
    "Longitude": "76.6332",
    "AvailableFormats": "2D"
  },
  "INPO": {
    "VenueCode": "INPO",
    "VenueName": "INOX: Porvorim, Goa",
    "VenueAddress": "Mall De Goa,Edapally, Nova Cidade Commercial Complex, Alto Porvorim, Bardez, Goa, Goa 403521, India",
    "City": "Goa",
    "State": "Goa",
    "RegionCode": "GOA",
    "SubRegionCode": "GOA",
    "Latitude": "15.5259",
    "Longitude": "73.8269",
    "AvailableFormats": "2D|3D"
  },
  "INGO": {
    "VenueCode": "INGO",
    "VenueName": "INOX: Old GMC, DB Road, Panaji",
    "VenueAddress": "Dayanand Bandodkar Marg, Old GMC Heritage Precinct, D.B.Road, General Bernardo Guedes Road, Goa, Goa 403001, India",
    "City": "Goa",
    "State": "Goa",
    "RegionCode": "PANA",
    "SubRegionCode": "PANA",
    "Latitude": "15.4991",
    "Longitude": "73.8212",
    "AvailableFormats": "2D|3D"
  },
  "HFSQ": {
    "VenueCode": "HFSQ",
    "VenueName": "Z Square Hira Talkies: Bicholim",
    "VenueAddress": "Bicholim Road, Bicholim, Near Dreams Bakery, Bicholim, Goa 403504, India",
    "City": "Bicholim",
    "State": "Goa",
    "RegionCode": "GOA",
    "SubRegionCode": "BICG",
    "Latitude": "15.5878",
    "Longitude": "73.9441",
    "AvailableFormats": "2D"
  },
  "INMG": {
    "VenueCode": "INMG",
    "VenueName": "INOX: Osia G Wing Margao, Goa",
    "VenueAddress": "G Wing, Osia Commercial Arcade, SGPDA Market Complex, Goa, Goa 403601, India",
    "City": "Goa",
    "State": "Goa",
    "RegionCode": "GOA",
    "SubRegionCode": "GOA",
    "Latitude": "15.2848",
    "Longitude": "73.9576",
    "AvailableFormats": "2D|3D"
  },
  "NYCP": {
    "VenueCode": "NYCP",
    "VenueName": "Novelty Cinema: Ponda, Goa",
    "VenueAddress": "The Atrium Mall, Market Road, Near BSNL Office, Ponda, Goa 403401, India",
    "City": "Ponda",
    "State": "Goa",
    "RegionCode": "GOA",
    "SubRegionCode": "PONA",
    "Latitude": "15.4014",
    "Longitude": "74.0051",
    "AvailableFormats": "2D|3D"
  },
  "HFSV": {
    "VenueCode": "HFSV",
    "VenueName": "Z Square Cine Shivam: Vasco Da Gama",
    "VenueAddress": "Vaddem, New Vaddem, FL  Gomes Road, Near Corporation Bank, Vasco Da Gama, Goa 403802, India",
    "City": "Vasco Da Gama",
    "State": "Goa",
    "RegionCode": "GOA",
    "SubRegionCode": "VAGG",
    "Latitude": "15.4",
    "Longitude": "73.8143",
    "AvailableFormats": "2D"
  },
  "MMZP": {
    "VenueCode": "MMZP",
    "VenueName": "Magic Moviez: Ponda",
    "VenueAddress": "Upper Bazar Road, Prabhu Nagar, Ponda, Goa 403401, India",
    "City": "Ponda",
    "State": "Goa",
    "RegionCode": "GOA",
    "SubRegionCode": "PONA",
    "Latitude": "15.4001",
    "Longitude": "74.0185",
    "AvailableFormats": "2D"
  },
  "KSES": {
    "VenueCode": "KSES",
    "VenueName": "1930 Vasco",
    "VenueAddress": "1930 Vasco, Opposite The  HQ, Swatantra Path, Vasco Da Gama, Goa 403802, India",
    "City": "Vasco Da Gama",
    "State": "Goa",
    "RegionCode": "PANA",
    "SubRegionCode": "PANA",
    "Latitude": "15.3971",
    "Longitude": "73.813",
    "AvailableFormats": "2D"
  },
  "HFSA": {
    "VenueCode": "HFSA",
    "VenueName": "Z Square Cine Samrat Ashok: Panaji",
    "VenueAddress": "Samrat Ashok Theatre Complex, 2nd Floor, 18th June Road, Hotel Ashok Plaza, Panaji, Goa 403001, India",
    "City": "Panaji",
    "State": "Goa",
    "RegionCode": "PANA",
    "SubRegionCode": "PANA",
    "Latitude": "15.497",
    "Longitude": "73.8239",
    "AvailableFormats": "2D"
  },
  "ACMM": {
    "VenueCode": "ACMM",
    "VenueName": "Anand Cine Magic Multiplex: Bilimora Renovated",
    "VenueAddress": "Sardar Patel Market Road, Triveni Society, Maruti Nagar, Bilimora, Gujarat 396321, India",
    "City": "Bilimora",
    "State": "Gujarat",
    "RegionCode": "BILI",
    "SubRegionCode": "BILI",
    "Latitude": "20.7681",
    "Longitude": "72.9731",
    "AvailableFormats": "2D"
  },
  "RCKD": {
    "VenueCode": "RCKD",
    "VenueName": "Raghvendra Chitramandir: Kurundwad",
    "VenueAddress": "Ring Road, Bypass Road, Kurundwad, Maharashtra 416106, India",
    "City": "Kurundwad",
    "State": "Maharashtra",
    "RegionCode": "KURD",
    "SubRegionCode": "KURD",
    "Latitude": "16.685",
    "Longitude": "74.5916",
    "AvailableFormats": "2D"
  },
  "BCKR": {
    "VenueCode": "BCKR",
    "VenueName": "Bombay Cineplex: Kharagpur",
    "VenueAddress": "Railway Plot No- 489, New Settlement, Gate Bazar, Kharagpur, West Bengal 721301, India",
    "City": "Kharagpur",
    "State": "West Bengal",
    "RegionCode": "KGPR",
    "SubRegionCode": "KGPR",
    "Latitude": "22.3381",
    "Longitude": "87.306",
    "AvailableFormats": "2D|3D"
  },
  "SFCO": {
    "VenueCode": "SFCO",
    "VenueName": "SVF Cinemas: Cooch Behar",
    "VenueAddress": "PRM Market City, 3rd Floor, 70,Nripendra Narayan Road, Gowalla Patti, Cooch Behar, West Bengal 736101, India",
    "City": "Cooch Behar",
    "State": "West Bengal",
    "RegionCode": "COBE",
    "SubRegionCode": "COBE",
    "Latitude": "26.3264",
    "Longitude": "89.4542",
    "AvailableFormats": "2D|3D"
  },
  "JCCB": {
    "VenueCode": "JCCB",
    "VenueName": "Jaya Cinemas, City Mall: Cooch Behar",
    "VenueAddress": "City Mall, Near 133 KVA Electric Substation, East Khagrabari, New Cooch Behar Road, Cooch Behar, West Bengal 736179, India",
    "City": "Cooch Behar",
    "State": "West Bengal",
    "RegionCode": "COBE",
    "SubRegionCode": "COBE",
    "Latitude": "26.3451",
    "Longitude": "89.4559",
    "AvailableFormats": "2D|3D"
  },
  "BCCR": {
    "VenueCode": "BCCR",
    "VenueName": "Bhavani Cinema: Cooch Behar",
    "VenueAddress": "Bhavani Cinema, Keshav Road, Cooch Behar, West Bengal 736101, India",
    "City": "Cooch Behar",
    "State": "West Bengal",
    "RegionCode": "COBE",
    "SubRegionCode": "COBE",
    "Latitude": "26.3296",
    "Longitude": "89.4426",
    "AvailableFormats": "3D|2D"
  },
  "NWCB": {
    "VenueCode": "NWCB",
    "VenueName": "New Cinema: Cooch Behar",
    "VenueAddress": "Bang Chatra Road, New Town, Near Bangchatra Sub Post Office, Cooch Behar, West Bengal 736101, India",
    "City": "Cooch Behar",
    "State": "West Bengal",
    "RegionCode": "COBE",
    "SubRegionCode": "COBE",
    "Latitude": "26.3159",
    "Longitude": "89.4491",
    "AvailableFormats": "2D"
  },
  "SAMT": {
    "VenueCode": "SAMT",
    "VenueName": "Samta Talkies: Pratapgarh",
    "VenueAddress": "M G Road, Pratapgarh H O, Near Bank Of Baroda, Pratapgarh (Rajasthan), Rajasthan 312605, India",
    "City": "Pratapgarh (Rajasthan)",
    "State": "Rajasthan",
    "RegionCode": "PTRT",
    "SubRegionCode": "PTRT",
    "Latitude": "24.0331",
    "Longitude": "74.7821",
    "AvailableFormats": "2D"
  },
  "TMST": {
    "VenueCode": "TMST",
    "VenueName": "TMS Theatre: Kambainallur",
    "VenueAddress": "Kambainallur Main Road, Opposite KMS Service Centre, Kambainallur, Tamil Nadu 635202, India",
    "City": "Kambainallur",
    "State": "Tamil Nadu",
    "RegionCode": "KAMR",
    "SubRegionCode": "KAMR",
    "Latitude": "12.2087",
    "Longitude": "78.314",
    "AvailableFormats": "2D"
  },
  "SJCN": {
    "VenueCode": "SJCN",
    "VenueName": "SJ Cinemas Sreenivasa: Nagari",
    "VenueAddress": "NH 205, Nagaraj Kuppam Road, Near Indian Bank, Nagari, Andhra Pradesh 517590, India",
    "City": "Nagari",
    "State": "Andhra Pradesh",
    "RegionCode": "NAGI",
    "SubRegionCode": "NAGI",
    "Latitude": "13.3185",
    "Longitude": "79.5868",
    "AvailableFormats": "2D"
  },
  "MCBS": {
    "VenueCode": "MCBS",
    "VenueName": "Miraj Bioscope Cinemas: Sikar",
    "VenueAddress": "Rajasthan State Highway 8A, Dhodh, Rani Sati Road, Mahaveer Rodi Factory, Sikar, Rajasthan 332001, India",
    "City": "Sikar",
    "State": "Rajasthan",
    "RegionCode": "SIKR",
    "SubRegionCode": "SIKR",
    "Latitude": "27.6009",
    "Longitude": "75.1458",
    "AvailableFormats": "2D|3D"
  },
  "CMKR": {
    "VenueCode": "CMKR",
    "VenueName": "Cine Square Cinemas: Sikar",
    "VenueAddress": "04th Floor, Shiv Mandir Cinemall, Fatehpur Road, Sikar, Rajasthan 332001, India",
    "City": "Sikar",
    "State": "Rajasthan",
    "RegionCode": "SIKR",
    "SubRegionCode": "SIKR",
    "Latitude": "27.6219",
    "Longitude": "75.1464",
    "AvailableFormats": "2D"
  },
  "INPM": {
    "VenueCode": "INPM",
    "VenueName": "INOX: PVS Mall, Meerut",
    "VenueAddress": "PVS Multiplex India Ltd, PVS Mall, 2nd Floor, I Block, Shastri Nagar, Meerut, Uttar Pradesh 250001, India",
    "City": "Meerut",
    "State": "Uttar Pradesh",
    "RegionCode": "MERT",
    "SubRegionCode": "MERT",
    "Latitude": "28.9528",
    "Longitude": "77.7315",
    "AvailableFormats": "3D|2D"
  },
  "WVMT": {
    "VenueCode": "WVMT",
    "VenueName": "Wave: Meerut",
    "VenueAddress": "Supertech Shopprix Mall, Opp. Dainik Jagran Press, Delhi Road, Near Surya Palace Colony, Meerut, Uttar Pradesh 160102, India",
    "City": "Meerut",
    "State": "Uttar Pradesh",
    "RegionCode": "MERT",
    "SubRegionCode": "MERT",
    "Latitude": "28.9477",
    "Longitude": "77.6756",
    "AvailableFormats": "2D"
  },
  "NYSM": {
    "VenueCode": "NYSM",
    "VenueName": "NY Satyam Cinema: Meerut",
    "VenueAddress": "Satyam Palace, Municipal House No. 28, Bhudana Gate. Mohalla Swamipada, Meerut, Uttar Pradesh 250002, India",
    "City": "Meerut",
    "State": "Uttar Pradesh",
    "RegionCode": "MERT",
    "SubRegionCode": "MERT",
    "Latitude": "28.9815",
    "Longitude": "77.7044",
    "AvailableFormats": "2D"
  },
  "RCMA": {
    "VenueCode": "RCMA",
    "VenueName": "Rapid Cinema, The Melange Mall: Meerut",
    "VenueAddress": "The Melange Mall, Pallavpuram Phase 2, Modipuram, Meerut, Uttar Pradesh 250110, India",
    "City": "Meerut",
    "State": "Uttar Pradesh",
    "RegionCode": "MERT",
    "SubRegionCode": "MERT",
    "Latitude": "29.0645",
    "Longitude": "77.7094",
    "AvailableFormats": "2D"
  },
  "RECM": {
    "VenueCode": "RECM",
    "VenueName": "Regal Cineplex: Meerut",
    "VenueAddress": "120 B, Church Street, Mall Road,Lekha Nagar, Meerut Cantt, Meerut, Uttar Pradesh 250001, India",
    "City": "Meerut",
    "State": "Uttar Pradesh",
    "RegionCode": "MERT",
    "SubRegionCode": "MERT",
    "Latitude": "29.0082",
    "Longitude": "77.7076",
    "AvailableFormats": "2D"
  },
  "CYCM": {
    "VenueCode": "CYCM",
    "VenueName": "Citara Satyam Cinema: Ambajogai",
    "VenueAddress": "Flat no. New Survey No. 16/7, House no 278/279, Karkhana Road, Dist Beed, Jogaiwadi, Ambajogai, Maharashtra 431517, India",
    "City": "Ambajogai",
    "State": "Maharashtra",
    "RegionCode": "AMBG",
    "SubRegionCode": "AMBG",
    "Latitude": "18.7127",
    "Longitude": "76.5414",
    "AvailableFormats": "2D"
  },
  "MCCZ": {
    "VenueCode": "MCCZ",
    "VenueName": "Mohan Cinemark: Ambajogai",
    "VenueAddress": "Prashant Nagar, Dr. B.R Ambedkar Road, Ambajogai, Maharashtra 431517, India",
    "City": "Ambajogai",
    "State": "Maharashtra",
    "RegionCode": "AMBG",
    "SubRegionCode": "AMBG",
    "Latitude": "18.7313",
    "Longitude": "76.391",
    "AvailableFormats": "2D"
  },
  "FRPU": {
    "VenueCode": "FRPU",
    "VenueName": "Om Jee Cinemas: Patran",
    "VenueAddress": "Narwana Bye Pass Road, Patiala, Patran, Punjab 147105, India",
    "City": "Patran",
    "State": "Punjab",
    "RegionCode": "PATR",
    "SubRegionCode": "PATR",
    "Latitude": "29.9458",
    "Longitude": "76.0642",
    "AvailableFormats": "2D"
  },
  "SKSI": {
    "VenueCode": "SKSI",
    "VenueName": "SR Cinemas: Kashti",
    "VenueAddress": "Ahmed Nagar, Daund Road, Kashti, Maharashtra 414701, India",
    "City": "Kashti",
    "State": "Maharashtra",
    "RegionCode": "KAST",
    "SubRegionCode": "KAST",
    "Latitude": "18.5461",
    "Longitude": "74.5826",
    "AvailableFormats": "2D"
  },
  "SSCK": {
    "VenueCode": "SSCK",
    "VenueName": "Sree Sailam Cine House 4K: Kadakkal",
    "VenueAddress": "Sree Sailom Cine House, Nilamel - Madathara Road, Kadakkal, Kerala 691536, India",
    "City": "Kadakkal",
    "State": "Kerala",
    "RegionCode": "KDKL",
    "SubRegionCode": "KDKL",
    "Latitude": "8.82757",
    "Longitude": "76.9097",
    "AvailableFormats": "2D"
  },
  "SRDC": {
    "VenueCode": "SRDC",
    "VenueName": "SreeDhanya Cinemax",
    "VenueAddress": "Paripally Madathara Rd, Kanjirathummoodu,Kerala, Near Nithyasree Auditorium, Kadakkal, Kerala 691559, India",
    "City": "Kadakkal",
    "State": "Kerala",
    "RegionCode": "KDKL",
    "SubRegionCode": "KDKL",
    "Latitude": "8.82405",
    "Longitude": "76.9511",
    "AvailableFormats": "2D"
  },
  "RSCZ": {
    "VenueCode": "RSCZ",
    "VenueName": "Rajshree Starworld Cinema: Mirzapur",
    "VenueAddress": "G.D.Binani P.G. College Mirzapur, Tehsil Road, Shuklaha Chowk, Varanasi Road, Cheruiram, Near Hanuman Mandir, Mirzapur, Uttar Pradesh 231307, India",
    "City": "Mirzapur",
    "State": "Uttar Pradesh",
    "RegionCode": "MIZP",
    "SubRegionCode": "MIZP",
    "Latitude": "25.1419",
    "Longitude": "82.5817",
    "AvailableFormats": "2D"
  },
  "PRVT": {
    "VenueCode": "PRVT",
    "VenueName": "Parvathi Talkies A/C: Bhattiprolu",
    "VenueAddress": "Temple Road, Near Ramaguptha Kalyana Mandapam, Bhattiprolu, Andhra Pradesh 522256, India",
    "City": "Bhattiprolu",
    "State": "Andhra Pradesh",
    "RegionCode": "BATT",
    "SubRegionCode": "BATT",
    "Latitude": "16.1016",
    "Longitude": "80.7836",
    "AvailableFormats": "2D"
  },
  "GAGJ": {
    "VenueCode": "GAGJ",
    "VenueName": "Gangaraju Kalamandhir Dolby7.1: Gajapathinagaram",
    "VenueAddress": "Jayanthi Colony, Near Canara Bank, Gajapathinagaram, Andhra Pradesh 535270, India",
    "City": "Gajapathinagaram",
    "State": "Andhra Pradesh",
    "RegionCode": "GJPT",
    "SubRegionCode": "GJPT",
    "Latitude": "18.284",
    "Longitude": "83.337",
    "AvailableFormats": "2D"
  },
  "SMHG": {
    "VenueCode": "SMHG",
    "VenueName": "Surya Mahal: Gajapathinagaram",
    "VenueAddress": "Jeypore - Vizianagaram Road, Near Gajapathinagaram Bridge, Gajapathinagaram, Andhra Pradesh 535270, India",
    "City": "Gajapathinagaram",
    "State": "Andhra Pradesh",
    "RegionCode": "GJPT",
    "SubRegionCode": "GJPT",
    "Latitude": "18.2758",
    "Longitude": "83.3374",
    "AvailableFormats": "2D"
  },
  "JTST": {
    "VenueCode": "JTST",
    "VenueName": "Srinivas Theatre: Kovur",
    "VenueAddress": "Chinnapadugupadu, Srinivasa Theatre Road, Near State Bank ATM, Kovur (Nellore), Andhra Pradesh 524137, India",
    "City": "Kovur (Nellore)",
    "State": "Andhra Pradesh",
    "RegionCode": "KOVR",
    "SubRegionCode": "KOVR",
    "Latitude": "14.5019",
    "Longitude": "79.986",
    "AvailableFormats": "2D"
  },
  "MYTH": {
    "VenueCode": "MYTH",
    "VenueName": "Mythili Theatre: Kovur",
    "VenueAddress": "Mythili Imax Cinemas Road, Near ICICI Bank ATM, Kovur (Nellore), Andhra Pradesh 524137, India",
    "City": "Kovur (Nellore)",
    "State": "Andhra Pradesh",
    "RegionCode": "KOVR",
    "SubRegionCode": "KOVR",
    "Latitude": "14.505",
    "Longitude": "79.9859",
    "AvailableFormats": "2D"
  },
  "JPCC": {
    "VenueCode": "JPCC",
    "VenueName": "JP Cinemas: Chhatarpur",
    "VenueAddress": "JP Paradise, Peptech Town, Nowgong Road, National Highway 39, Chhatarpur, Madhya Pradesh 471001, India",
    "City": "Chhatarpur",
    "State": "Madhya Pradesh",
    "RegionCode": "CHHT",
    "SubRegionCode": "CHHT",
    "Latitude": "24.9439",
    "Longitude": "79.564",
    "AvailableFormats": "2D"
  },
  "ACDC": {
    "VenueCode": "ACDC",
    "VenueName": "Ashoka Cineplex: Chhatarpur",
    "VenueAddress": "Green Avenue Colony, Next to Dr. Radhakrishna Higher Secondary School, Chhatarpur, Madhya Pradesh 471001, India",
    "City": "Chhatarpur",
    "State": "Madhya Pradesh",
    "RegionCode": "CHHT",
    "SubRegionCode": "CHHT",
    "Latitude": "24.8849",
    "Longitude": "79.5946",
    "AvailableFormats": "2D"
  },
  "SVFP": {
    "VenueCode": "SVFP",
    "VenueName": "SVF Cinemas: PRM Centre Point, Malda",
    "VenueAddress": "Badshahi Road, Jadupur, Malda, West Bengal 732101, India",
    "City": "Malda",
    "State": "West Bengal",
    "RegionCode": "MALD",
    "SubRegionCode": "MALD",
    "Latitude": "24.9777",
    "Longitude": "88.1317",
    "AvailableFormats": "2D|3D"
  },
  "SFCM": {
    "VenueCode": "SFCM",
    "VenueName": "SVF Cinemas: Malda",
    "VenueAddress": "DD Behani Complex, 4th Floor, 26,27 Rabindra Avenue, Malda, West Bengal 732101, India",
    "City": "Malda",
    "State": "West Bengal",
    "RegionCode": "MALD",
    "SubRegionCode": "MALD",
    "Latitude": "25.0012",
    "Longitude": "88.1392",
    "AvailableFormats": "3D|2D"
  },
  "RUPK": {
    "VenueCode": "RUPK",
    "VenueName": "Rupkatha Cinema Dolby Digital: Malda",
    "VenueAddress": "Gangabag, Netaji Subhash Road, Malda, West Bengal 732101, India",
    "City": "Malda",
    "State": "West Bengal",
    "RegionCode": "MALD",
    "SubRegionCode": "MALD",
    "Latitude": "25.0045",
    "Longitude": "88.1483",
    "AvailableFormats": "2D"
  },
  "NTCR": {
    "VenueCode": "NTCR",
    "VenueName": "Nataraj Cinema: Malda",
    "VenueAddress": "Mangal Bari, Vivekananda Ave Road, Malda, West Bengal 732142, India",
    "City": "Malda",
    "State": "West Bengal",
    "RegionCode": "MALD",
    "SubRegionCode": "MALD",
    "Latitude": "25.0147",
    "Longitude": "88.1494",
    "AvailableFormats": "2D"
  },
  "RTCH": {
    "VenueCode": "RTCH",
    "VenueName": "Sri Ratna Theatre Complex: Chintalapudi",
    "VenueAddress": "Sitanagaram Road, Coastal Andhra Region, Chintalapudi, Andhra Pradesh 534460, India",
    "City": "Chintalapudi",
    "State": "Andhra Pradesh",
    "RegionCode": "CHPD",
    "SubRegionCode": "CHPD",
    "Latitude": "17.0723",
    "Longitude": "80.9844",
    "AvailableFormats": "2D"
  },
  "SCMH": {
    "VenueCode": "SCMH",
    "VenueName": "S3 Cineplex: Manendragarh",
    "VenueAddress": "Moharpara, Civil Lines Road, Near Tehsil Office, Manendragarh, Chhattisgarh 497442, India",
    "City": "Manendragarh",
    "State": "Chhattisgarh",
    "RegionCode": "MANE",
    "SubRegionCode": "MANE",
    "Latitude": "23.2148",
    "Longitude": "82.2067",
    "AvailableFormats": "2D"
  },
  "SVYM": {
    "VenueCode": "SVYM",
    "VenueName": "Shiva Cinemas: Yemmiganur",
    "VenueAddress": "Timmappa Colony, Billekal - Yemmiganur Road, Near Geetha Children Hospital, Yemmiganur, Andhra Pradesh 518360, India",
    "City": "Yemmiganur",
    "State": "Andhra Pradesh",
    "RegionCode": "YEMM",
    "SubRegionCode": "YEMM",
    "Latitude": "15.762",
    "Longitude": "77.4797",
    "AvailableFormats": "2D"
  },
  "SPYM": {
    "VenueCode": "SPYM",
    "VenueName": "Siva Priya Cinema: Yemmiganur",
    "VenueAddress": "Timmappa Colony, Timmappa Colony, Near Geetha Children Hospital, Yemmiganur, Andhra Pradesh 518360, India",
    "City": "Yemmiganur",
    "State": "Andhra Pradesh",
    "RegionCode": "YEMM",
    "SubRegionCode": "YEMM",
    "Latitude": "15.762",
    "Longitude": "77.4797",
    "AvailableFormats": "2D"
  },
  "SMMF": {
    "VenueCode": "SMMF",
    "VenueName": "Mini Srinivasa Theater: Yemmiganur",
    "VenueAddress": "1/1161, First Floor, Geethanagar, Yemmiganur, Andhra Pradesh 518360, India",
    "City": "Yemmiganur",
    "State": "Andhra Pradesh",
    "RegionCode": "YEMM",
    "SubRegionCode": "YEMM",
    "Latitude": "15.7725",
    "Longitude": "77.4792",
    "AvailableFormats": "2D"
  },
  "CLLB": {
    "VenueCode": "CLLB",
    "VenueName": "Connplex Cinemas (Luxuriance): Bhagalpur",
    "VenueAddress": "4th floor, H L Tower, DN Singh Road, Near Hari Om Laxmi Narayan Jewellers, Kharmanchak, PS, Jogsar, Adampur, Bhagalpur, Bihar 812002, India",
    "City": "Bhagalpur",
    "State": "Bihar",
    "RegionCode": "BHAG",
    "SubRegionCode": "BHAG",
    "Latitude": "25.2483",
    "Longitude": "86.9764",
    "AvailableFormats": "2D"
  },
  "FMCB": {
    "VenueCode": "FMCB",
    "VenueName": "FM Cineplex: Bhagalpur",
    "VenueAddress": "Near DAV School, Large Industrial Area, Barari, Bhagalpur, Bihar 812003, India",
    "City": "Bhagalpur",
    "State": "Bihar",
    "RegionCode": "BHAG",
    "SubRegionCode": "BHAG",
    "Latitude": "25.2632",
    "Longitude": "87.0324",
    "AvailableFormats": "2D|3D"
  },
  "BBTC": {
    "VenueCode": "BBTC",
    "VenueName": "Sri Balaji Talkies: Channapatna",
    "VenueAddress": "16th Cross, Mangalavara Pete Road, Near Big Bazar, Channapatna, Karnataka 562160, India",
    "City": "Channapatna",
    "State": "Karnataka",
    "RegionCode": "CPTN",
    "SubRegionCode": "CPTN",
    "Latitude": "12.6456",
    "Longitude": "77.1945",
    "AvailableFormats": "2D"
  },
  "NTHS": {
    "VenueCode": "NTHS",
    "VenueName": "Nataraj Talkies: Sirsi, Karnataka",
    "VenueAddress": "SH 93, CP Bazar, Sirsi, Karnataka 581401, India",
    "City": "Sirsi",
    "State": "Karnataka",
    "RegionCode": "SRSI",
    "SubRegionCode": "SRSI",
    "Latitude": "14.6172",
    "Longitude": "74.8333",
    "AvailableFormats": "2D"
  },
  "PKKJ": {
    "VenueCode": "PKKJ",
    "VenueName": "PVR: KC Jammu",
    "VenueAddress": "B.C Road, Bakshi Nagar Flyover Jammu, Jammu, Jammu and Kashmir 180001, India",
    "City": "Jammu",
    "State": "Jammu and Kashmir",
    "RegionCode": "JAMM",
    "SubRegionCode": "JAMM",
    "Latitude": "32.7341",
    "Longitude": "74.858",
    "AvailableFormats": "2D|3D"
  },
  "MTJA": {
    "VenueCode": "MTJA",
    "VenueName": "Movietime Cinemas: Jammu",
    "VenueAddress": "K C Central, Indira Theater, Canal Road, Jammu Tawi, Near The Raymond Shop, Jammu, Jammu and Kashmir 180002, India",
    "City": "Jammu",
    "State": "Jammu and Kashmir",
    "RegionCode": "JAMM",
    "SubRegionCode": "JAMM",
    "Latitude": "32.7274",
    "Longitude": "74.8458",
    "AvailableFormats": "2D"
  },
  "PMSJ": {
    "VenueCode": "PMSJ",
    "VenueName": "Platinum Movietime SPA: Palm Island Mall, Jammu",
    "VenueAddress": "3rd Floor, Palm Island Mall, Canal Road, Jammu, Jammu and Kashmir 180016, India",
    "City": "Jammu",
    "State": "Jammu and Kashmir",
    "RegionCode": "JAMM",
    "SubRegionCode": "JAMM",
    "Latitude": "32.7288",
    "Longitude": "74.8471",
    "AvailableFormats": "2D"
  },
  "JMJU": {
    "VenueCode": "JMJU",
    "VenueName": "Apsra Hospitality & Entertainment(Apsra Multiplex)",
    "VenueAddress": "Gandhi Nagar, Apsara Road, Jammu, Jammu and Kashmir 180004, India",
    "City": "Jammu",
    "State": "Jammu and Kashmir",
    "RegionCode": "JAMM",
    "SubRegionCode": "JAMM",
    "Latitude": "32.6993",
    "Longitude": "74.8583",
    "AvailableFormats": "2D"
  },
  "SRAD": {
    "VenueCode": "SRAD",
    "VenueName": "Sri Devi Mahal: Amadalavalasa",
    "VenueAddress": "Kotturu-Srikakulam Road, Near By Sri Vasavi Kanyaka Parmeshwari Temple, Amadalavalasa, Andhra Pradesh 532185, India",
    "City": "Amadalavalasa",
    "State": "Andhra Pradesh",
    "RegionCode": "ADAM",
    "SubRegionCode": "ADAM",
    "Latitude": "18.4127",
    "Longitude": "83.9072",
    "AvailableFormats": "2D"
  },
  "MJMC": {
    "VenueCode": "MJMC",
    "VenueName": "Mahabir Jain Municipalty Cultural: Jiaganj",
    "VenueAddress": "Old Laxmi Talkies, Chudipatti Road, Jiaganj, West Bengal 742123, India",
    "City": "Jiaganj",
    "State": "West Bengal",
    "RegionCode": "JAGJ",
    "SubRegionCode": "JAGJ",
    "Latitude": "24.2375",
    "Longitude": "88.2642",
    "AvailableFormats": "2D"
  },
  "DFRM": {
    "VenueCode": "DFRM",
    "VenueName": "DFine Cinemas: Ramnagar",
    "VenueAddress": "Radheysham Arcade, Lakhanpur, Tera Road, Ramnagar, Uttarakhand 244715, India",
    "City": "Ramnagar",
    "State": "Uttarakhand",
    "RegionCode": "RAMN",
    "SubRegionCode": "RAMN",
    "Latitude": "29.4007",
    "Longitude": "79.1271",
    "AvailableFormats": "2D"
  },
  "PMRS": {
    "VenueCode": "PMRS",
    "VenueName": "PM Cinema (Riddhima-2): Sagwara",
    "VenueAddress": "Surbhi Shopping Mall, Krishna Nagar, Sagwara, Rajasthan 314025, India",
    "City": "Sagwara",
    "State": "Rajasthan",
    "RegionCode": "SAGA",
    "SubRegionCode": "SAGA",
    "Latitude": "23.6672",
    "Longitude": "74.0265",
    "AvailableFormats": "2D"
  },
  "RKPP": {
    "VenueCode": "RKPP",
    "VenueName": "Ramakrishna Picture Palace: Siruguppa",
    "VenueAddress": "Behind Haripriya Supermarket, Near Bannimahankaali Temple, Siruguppa, Karnataka 583121, India",
    "City": "Siruguppa",
    "State": "Karnataka",
    "RegionCode": "SPPA",
    "SubRegionCode": "SPPA",
    "Latitude": "15.6328",
    "Longitude": "76.8917",
    "AvailableFormats": "2D"
  },
  "BMBK": {
    "VenueCode": "BMBK",
    "VenueName": "Bhagirathi Multiplex: Bhawanipatna",
    "VenueAddress": "Bhagirathi Mall, Sambhunagar Pada, Bhawanipatna, Odisha 766002, India",
    "City": "Bhawanipatna",
    "State": "Odisha",
    "RegionCode": "BHAW",
    "SubRegionCode": "BHAW",
    "Latitude": "19.9065",
    "Longitude": "83.1421",
    "AvailableFormats": "2D"
  },
  "NEWS": {
    "VenueCode": "NEWS",
    "VenueName": "New Star Cineplex: Bhawanipatna",
    "VenueAddress": "Bhawanipatna - Raipur Highway, Parmanandapur, Opposite of OMFED Dairy, Bhawanipatna, Odisha 766002, India",
    "City": "Bhawanipatna",
    "State": "Odisha",
    "RegionCode": "BHAW",
    "SubRegionCode": "BHAW",
    "Latitude": "19.9265",
    "Longitude": "83.1518",
    "AvailableFormats": "2D"
  },
  "SALB": {
    "VenueCode": "SALB",
    "VenueName": "Sharma Palace Cinema: Bazpur",
    "VenueAddress": "Kashipur Road, Near Udham Singh Nagar District Co-operative Bank, Bazpur, Uttarakhand 263401, India",
    "City": "Bazpur",
    "State": "Uttarakhand",
    "RegionCode": "BAZP",
    "SubRegionCode": "BAZP",
    "Latitude": "29.1515",
    "Longitude": "79.1447",
    "AvailableFormats": "2D"
  },
  "SCPW": {
    "VenueCode": "SCPW",
    "VenueName": "Saim Cinemas: Palwal",
    "VenueAddress": "Rock Arcade Mall, Near Jila Rozgar Office, Kalyan Enclave, Palwal, Haryana 121102, India",
    "City": "Palwal",
    "State": "Haryana",
    "RegionCode": "PLWL",
    "SubRegionCode": "PLWL",
    "Latitude": "28.1536",
    "Longitude": "77.3272",
    "AvailableFormats": "2D"
  },
  "RAYL": {
    "VenueCode": "RAYL",
    "VenueName": "Redrocks Cherish Cinemas: Palwal",
    "VenueAddress": "Ramnagar, Mathura Road, National Highway 2, Near Hide Out Banquet Hall, Palwal, Haryana 121102, India",
    "City": "Palwal",
    "State": "Haryana",
    "RegionCode": "PLWL",
    "SubRegionCode": "PLWL",
    "Latitude": "28.123",
    "Longitude": "77.331",
    "AvailableFormats": "2D"
  },
  "CMGJ": {
    "VenueCode": "CMGJ",
    "VenueName": "Chhotu Maharaj Cine Cafe: Godda, Jharkhand",
    "VenueAddress": "Rooftop Of Reliance Smart Bazaar, Near Petrol Pump Bhagalpur Road, Godda, Jharkhand 814133, India",
    "City": "Godda",
    "State": "Jharkhand",
    "RegionCode": "GDDA",
    "SubRegionCode": "GDDA",
    "Latitude": "24.8314",
    "Longitude": "87.21",
    "AvailableFormats": "2D"
  },
  "JRCR": {
    "VenueCode": "JRCR",
    "VenueName": "Jai Rajan Cinema: Raghopur",
    "VenueAddress": "Raghopur Police Station, Piprahi, National Highway 106, Near Ganesh Electronics, Raghopur, Bihar 852111, India",
    "City": "Raghopur",
    "State": "Bihar",
    "RegionCode": "RAHO",
    "SubRegionCode": "RAHO",
    "Latitude": "26.3047",
    "Longitude": "86.8414",
    "AvailableFormats": "2D"
  },
  "SRTB": {
    "VenueCode": "SRTB",
    "VenueName": "Sri Renuka Talkies: Belur",
    "VenueAddress": "Next to Belur Public School, Near Sri Veera Anjaneya Swamy Temple, Belur, Karnataka 573115, India",
    "City": "Belur",
    "State": "Karnataka",
    "RegionCode": "BELU",
    "SubRegionCode": "BELU",
    "Latitude": "13.1693",
    "Longitude": "75.8677",
    "AvailableFormats": "2D"
  },
  "ETPB": {
    "VenueCode": "ETPB",
    "VenueName": "The Entertainment Park: Bhavnagar",
    "VenueAddress": "Shiva Blessing 2, Shilpi Nagar, Opposite Bhavnagar Municipal Corporation, Bhavnagar, Gujarat 364001, India",
    "City": "Bhavnagar",
    "State": "Gujarat",
    "RegionCode": "BHNG",
    "SubRegionCode": "BHNG",
    "Latitude": "21.7716",
    "Longitude": "72.1462",
    "AvailableFormats": "2D"
  },
  "MXBN": {
    "VenueCode": "MXBN",
    "VenueName": "Maxus Cinemas: Bhavnagar",
    "VenueAddress": "Himalaya Mall, Waghawadi Rd, Nr ISKCON Mega City, Opp Victoria Park, Bhavnagar, Gujarat 364002, India",
    "City": "Bhavnagar",
    "State": "Gujarat",
    "RegionCode": "BHNG",
    "SubRegionCode": "BHNG",
    "Latitude": "21.7509",
    "Longitude": "72.1364",
    "AvailableFormats": "2D|3D"
  },
  "TOPE": {
    "VenueCode": "TOPE",
    "VenueName": "Top3 Multiplex: Bhavnagar",
    "VenueAddress": "B.A.D.A., Vikash Path, Opposite Natraj Complex, Bhavnagar, Gujarat 364002, India",
    "City": "Bhavnagar",
    "State": "Gujarat",
    "RegionCode": "BHNG",
    "SubRegionCode": "BHNG",
    "Latitude": "21.7302",
    "Longitude": "72.1536",
    "AvailableFormats": "2D"
  },
  "SNLJ": {
    "VenueCode": "SNLJ",
    "VenueName": "Sri Srinivasa Theater A/C Dts: Nallajerla",
    "VenueAddress": "GNT Road, Near Somalamma Thalli Temple, Nallajerla, Andhra Pradesh 534112, India",
    "City": "Nallajerla",
    "State": "Andhra Pradesh",
    "RegionCode": "NALJ",
    "SubRegionCode": "NALJ",
    "Latitude": "16.9415",
    "Longitude": "81.3986",
    "AvailableFormats": "2D"
  },
  "CDDP": {
    "VenueCode": "CDDP",
    "VenueName": "Deva Carnival Cinemas: D Mall, Punalur",
    "VenueAddress": "Market Road, Chemmanthoor, Punalur, Kerala 691305, India",
    "City": "Punalur",
    "State": "Kerala",
    "RegionCode": "PUNA",
    "SubRegionCode": "PUNA",
    "Latitude": "9.02059",
    "Longitude": "76.9193",
    "AvailableFormats": "2D"
  },
  "APCX": {
    "VenueCode": "APCX",
    "VenueName": "ARIESPLEX PUNALUR RGB LASER 4K ATMOS",
    "VenueAddress": "Kalayanad, Kollam Thirumangalam Road, Punalur, Kerala 691305, India",
    "City": "Punalur",
    "State": "Kerala",
    "RegionCode": "PUNA",
    "SubRegionCode": "PUNA",
    "Latitude": "9.01592",
    "Longitude": "76.939",
    "AvailableFormats": "2D"
  },
  "TALP": {
    "VenueCode": "TALP",
    "VenueName": "Thai Lakshmi Cinema: Punalur",
    "VenueAddress": "Kollam Tenkasi Road, T B Junction, Kalayanad, Near Kerala Hotel, Punalur, Kerala 691305, India",
    "City": "Punalur",
    "State": "Kerala",
    "RegionCode": "PUNA",
    "SubRegionCode": "PUNA",
    "Latitude": "9.01869",
    "Longitude": "76.9288",
    "AvailableFormats": "2D"
  },
  "RRMP": {
    "VenueCode": "RRMP",
    "VenueName": "Ramraj Movies",
    "VenueAddress": "National Highway 744, Kollam - Thirumanglam Road, Chemmanthor, Near Hindustan Petroleum, Punalur, Kerala 691305, India",
    "City": "Punalur",
    "State": "Kerala",
    "RegionCode": "PUNA",
    "SubRegionCode": "PUNA",
    "Latitude": "9.01905",
    "Longitude": "76.9203",
    "AvailableFormats": "2D"
  },
  "MAHB": {
    "VenueCode": "MAHB",
    "VenueName": "Madhab Cinema Hall: Bhadrak",
    "VenueAddress": "State Highway 53, Near Randia Children Park, Behind Tarini Temple, Bhadrak, Odisha 756113, India",
    "City": "Bhadrak",
    "State": "Odisha",
    "RegionCode": "BHAD",
    "SubRegionCode": "BHAD",
    "Latitude": "21.0683",
    "Longitude": "86.466",
    "AvailableFormats": "2D"
  },
  "MTKR": {
    "VenueCode": "MTKR",
    "VenueName": "Movietime Cinemas: Karnal",
    "VenueAddress": "Plot No 1, 4th Floor, Super Mall, Sector 12, Part 1, Karnal, Haryana 132001, India",
    "City": "Karnal",
    "State": "Haryana",
    "RegionCode": "KARN",
    "SubRegionCode": "KARN",
    "Latitude": "29.6969",
    "Longitude": "77.0014",
    "AvailableFormats": "2D|3D"
  },
  "KSKL": {
    "VenueCode": "KSKL",
    "VenueName": "Harsh A Movie: Karnal",
    "VenueAddress": "Sector 12, Main Road, Karnal, Haryana 132001, India",
    "City": "Karnal",
    "State": "Haryana",
    "RegionCode": "KARN",
    "SubRegionCode": "KARN",
    "Latitude": "29.6935",
    "Longitude": "77.0028",
    "AvailableFormats": "2D"
  },
  "RJLT": {
    "VenueCode": "RJLT",
    "VenueName": "Rajalakshmi Theatre A/C Dolby Atmos and RGB Laser",
    "VenueAddress": "Ramamoorthy Road, 1st Street, No 165, Virudhunagar, Tamil Nadu 626001, India",
    "City": "Virudhunagar",
    "State": "Tamil Nadu",
    "RegionCode": "VIRU",
    "SubRegionCode": "VIRU",
    "Latitude": "9.58947",
    "Longitude": "77.9584",
    "AvailableFormats": "2D"
  },
  "ATAS": {
    "VenueCode": "ATAS",
    "VenueName": "Apsara Theatre A/C 7.1 Surround System",
    "VenueAddress": "Railway Feeder Road, Sivagami Puram, Virudhunagar, Tamil Nadu 626001, India",
    "City": "Virudhunagar",
    "State": "Tamil Nadu",
    "RegionCode": "VIRU",
    "SubRegionCode": "VIRU",
    "Latitude": "9.59006",
    "Longitude": "77.9557",
    "AvailableFormats": "2D"
  },
  "AMHR": {
    "VenueCode": "AMHR",
    "VenueName": "Amirtharaj Theatre A/C 2K Dolby 7.1: Virudhunagar",
    "VenueAddress": "RR Nagar, Sivagami Puram, Virudhunagar, Tamil Nadu 626001, India",
    "City": "Virudhunagar",
    "State": "Tamil Nadu",
    "RegionCode": "VIRU",
    "SubRegionCode": "VIRU",
    "Latitude": "9.59045",
    "Longitude": "77.9527",
    "AvailableFormats": "2D"
  },
  "RSRM": {
    "VenueCode": "RSRM",
    "VenueName": "Ritzy Sri Ram Cinemas A/C 4K 7.1: Virudhunagar",
    "VenueAddress": "Shivanandham Road, Hanumaan Nagar, Virudhunagar, Tamil Nadu 626001, India",
    "City": "Virudhunagar",
    "State": "Tamil Nadu",
    "RegionCode": "VIRU",
    "SubRegionCode": "VIRU",
    "Latitude": "9.57446",
    "Longitude": "77.9634",
    "AvailableFormats": "2D"
  },
  "GCAT": {
    "VenueCode": "GCAT",
    "VenueName": "Gold Cinema: Golaghat",
    "VenueAddress": "Municipality Complex, Old Jail Road, Near Kutchina Modular Showroom, Golaghat, Assam 785621, India",
    "City": "Golaghat",
    "State": "Assam",
    "RegionCode": "GHT",
    "SubRegionCode": "GHT",
    "Latitude": "26.5113",
    "Longitude": "93.9726",
    "AvailableFormats": "2D"
  },
  "SMML": {
    "VenueCode": "SMML",
    "VenueName": "Suraj Multiplex: Deoria",
    "VenueAddress": "Suraj Multiplex,Suraj Talkies, Hanuman Mandir Road, Raghav Nagar, Deoria, Uttar Pradesh 274001, India",
    "City": "Deoria",
    "State": "Uttar Pradesh",
    "RegionCode": "DEEO",
    "SubRegionCode": "DEEO",
    "Latitude": "26.5027",
    "Longitude": "83.7754",
    "AvailableFormats": "2D"
  },
  "ACCD": {
    "VenueCode": "ACCD",
    "VenueName": "Aura Cineplex: Lar, Deoria",
    "VenueAddress": "Mod, Beside Union Bank Of India, Lakhu, Lar, Deoria, Uttar Pradesh 274502, India",
    "City": "Deoria",
    "State": "Uttar Pradesh",
    "RegionCode": "DEEO",
    "SubRegionCode": "DEEO",
    "Latitude": "26.2107",
    "Longitude": "83.9653",
    "AvailableFormats": "2D"
  },
  "VYDA": {
    "VenueCode": "VYDA",
    "VenueName": "Vijay Talkies: Deoria",
    "VenueAddress": "Saket Nagar, Garulpar, Deoria, Uttar Pradesh 274807, India",
    "City": "Deoria",
    "State": "Uttar Pradesh",
    "RegionCode": "DEEO",
    "SubRegionCode": "DEEO",
    "Latitude": "26.5021",
    "Longitude": "83.7869",
    "AvailableFormats": "2D"
  },
  "MSKT": {
    "VenueCode": "MSKT",
    "VenueName": "Krishna Talkies: Gauri Bazar, Deoria",
    "VenueAddress": "Paragna-Silhat Panankunda, Tappa Indupur, Near Gauri Bazar Tehsil, Deoria, Uttar Pradesh 274202, India",
    "City": "Deoria",
    "State": "Uttar Pradesh",
    "RegionCode": "DEEO",
    "SubRegionCode": "DEEO",
    "Latitude": "26.5923",
    "Longitude": "83.6668",
    "AvailableFormats": "2D"
  },
  "AVDM": {
    "VenueCode": "AVDM",
    "VenueName": "AVD Cinemas: Mahbubnagar",
    "VenueAddress": "Shah Saheb Gutta, Boyapalle Rural, Near Sri Hanuman Temple, Mahbubnagar, Telangana 509001, India",
    "City": "Mahbubnagar",
    "State": "Telangana",
    "RegionCode": "JADC",
    "SubRegionCode": "JADC",
    "Latitude": "16.7451",
    "Longitude": "77.9918",
    "AvailableFormats": "2D"
  },
  "ASMH": {
    "VenueCode": "ASMH",
    "VenueName": "Asian Srinivasa: Mahbubnagar",
    "VenueAddress": "Shah Saheb Gutta, Opposite Rehmania Masjid, Near Model Basic High School, Mahbubnagar, Telangana 509001, India",
    "City": "Mahbubnagar",
    "State": "Telangana",
    "RegionCode": "JADC",
    "SubRegionCode": "JADC",
    "Latitude": "16.7437",
    "Longitude": "77.9912",
    "AvailableFormats": "2D"
  },
  "VTMB": {
    "VenueCode": "VTMB",
    "VenueName": "Venkateswara Theatre: Mahbubnagar",
    "VenueAddress": "Shah Saheb Gutta, Near Srinivasa Theatre, Mahbubnagar, Telangana 509001, India",
    "City": "Mahbubnagar",
    "State": "Telangana",
    "RegionCode": "JADC",
    "SubRegionCode": "JADC",
    "Latitude": "16.744",
    "Longitude": "77.9918",
    "AvailableFormats": "2D"
  },
  "WVMB": {
    "VenueCode": "WVMB",
    "VenueName": "Wave: Moradabad",
    "VenueAddress": "The Westend Mall, F-31 Ram Ganga Vihar Phase-II Near MIT College MDA, Moradabad, Uttar Pradesh 244001, India",
    "City": "Moradabad",
    "State": "Uttar Pradesh",
    "RegionCode": "MORA",
    "SubRegionCode": "MORA",
    "Latitude": "28.8689",
    "Longitude": "78.7581",
    "AvailableFormats": "2D"
  },
  "PPMN": {
    "VenueCode": "PPMN",
    "VenueName": "PVR: Parshvanath, Moradabad",
    "VenueAddress": "Parshvnath Mall, V.C. Road, Ashiyana Colony, Moradabad, Uttar Pradesh 244001, India",
    "City": "Moradabad",
    "State": "Uttar Pradesh",
    "RegionCode": "MORA",
    "SubRegionCode": "MORA",
    "Latitude": "28.8792",
    "Longitude": "78.7397",
    "AvailableFormats": "2D|3D"
  },
  "MTMD": {
    "VenueCode": "MTMD",
    "VenueName": "Movietime Miglani Cinema: Moradabad",
    "VenueAddress": "Rampur Road, Near Old Bus Station, Gandhi Nagar, Moradabad, Uttar Pradesh 244001, India",
    "City": "Moradabad",
    "State": "Uttar Pradesh",
    "RegionCode": "MORA",
    "SubRegionCode": "MORA",
    "Latitude": "28.8252",
    "Longitude": "78.7751",
    "AvailableFormats": "2D|3D"
  },
  "SMMO": {
    "VenueCode": "SMMO",
    "VenueName": "Satyam Cineplex: Moradabad",
    "VenueAddress": "Rampur Road Satyam Cinema, Near Mahindra Auto Spares, Moradabad, Uttar Pradesh 244001, India",
    "City": "Moradabad",
    "State": "Uttar Pradesh",
    "RegionCode": "MORA",
    "SubRegionCode": "MORA",
    "Latitude": "28.8222",
    "Longitude": "78.7784",
    "AvailableFormats": "2D"
  },
  "DLPB": {
    "VenueCode": "DLPB",
    "VenueName": "Dilip Cinema: Barpeta Road",
    "VenueAddress": "Ward No. 9, Barpeta Road Post Office, Barpeta Road, Barpeta Road, Assam 781315, India",
    "City": "Barpeta Road",
    "State": "Assam",
    "RegionCode": "BRPD",
    "SubRegionCode": "BRPD",
    "Latitude": "26.4894",
    "Longitude": "90.9684",
    "AvailableFormats": "2D"
  },
  "AKMD": {
    "VenueCode": "AKMD",
    "VenueName": "Alka Multiplex: Chhindwara",
    "VenueAddress": "Alka Multiplex Alka Cinema Compound, Bus Stand to Station Road, Chhindwara, Madhya Pradesh 480001, India",
    "City": "Chhindwara",
    "State": "Madhya Pradesh",
    "RegionCode": "CHIN",
    "SubRegionCode": "CHIN",
    "Latitude": "22.0607",
    "Longitude": "78.9455",
    "AvailableFormats": "2D|3D"
  },
  "SHRR": {
    "VenueCode": "SHRR",
    "VenueName": "Shreyansh Talkies: Chhindwara",
    "VenueAddress": "Triloki Nagar, Chhota Talab, Chhindwara, Madhya Pradesh 480001, India",
    "City": "Chhindwara",
    "State": "Madhya Pradesh",
    "RegionCode": "CHIN",
    "SubRegionCode": "CHIN",
    "Latitude": "22.057",
    "Longitude": "78.9474",
    "AvailableFormats": "2D"
  },
  "ASCO": {
    "VenueCode": "ASCO",
    "VenueName": "Ascon Multiplex: Parasia",
    "VenueAddress": "Neelkamal Mall, Ward No. 2, Bhopal Road, Parasia, Chhindwara, Madhya Pradesh 480441, India",
    "City": "Chhindwara",
    "State": "Madhya Pradesh",
    "RegionCode": "CHIN",
    "SubRegionCode": "CHIN",
    "Latitude": "22.1988",
    "Longitude": "78.7585",
    "AvailableFormats": "2D"
  },
  "CZVX": {
    "VenueCode": "CZVX",
    "VenueName": "Chatrapati Cinema: Barshi",
    "VenueAddress": "Chatrapati Cinema Hall, Chatrapati Bhavan, Latur Road, Barshi, Maharashtra 413401, India",
    "City": "Barshi",
    "State": "Maharashtra",
    "RegionCode": "BRHI",
    "SubRegionCode": "BRHI",
    "Latitude": "18.2404",
    "Longitude": "75.6974",
    "AvailableFormats": "2D"
  },
  "GCBB": {
    "VenueCode": "GCBB",
    "VenueName": "Golden Cinemax: Barshi",
    "VenueAddress": "M.P complex 1551/1/2CD, Near by Hiremath Hospital, Subhas Nagar, Agalgoan Road, Solapur, Barshi, Maharashtra 413401, India",
    "City": "Barshi",
    "State": "Maharashtra",
    "RegionCode": "BRHI",
    "SubRegionCode": "BRHI",
    "Latitude": "18.2463",
    "Longitude": "75.6966",
    "AvailableFormats": "2D"
  },
  "ATBM": {
    "VenueCode": "ATBM",
    "VenueName": "Asha Talkies: Barshi, Maharashtra",
    "VenueAddress": "Bhim nagar, Parshwanath Marg, Chinch Road, Barshi, Maharashtra 413401, India",
    "City": "Barshi",
    "State": "Maharashtra",
    "RegionCode": "BRHI",
    "SubRegionCode": "BRHI",
    "Latitude": "18.233",
    "Longitude": "75.6911",
    "AvailableFormats": "2D"
  },
  "TCGM": {
    "VenueCode": "TCGM",
    "VenueName": "Tulsi Chitra Mandir: Gopiganj",
    "VenueAddress": "Ram Abhilash Nagar, Tulsi Cinema Road, Gopiganj, Uttar Pradesh 221303, India",
    "City": "Gopiganj",
    "State": "Uttar Pradesh",
    "RegionCode": "GOPI",
    "SubRegionCode": "GOPI",
    "Latitude": "25.2822",
    "Longitude": "82.4353",
    "AvailableFormats": "2D"
  },
  "UMSE": {
    "VenueCode": "UMSE",
    "VenueName": "UGM Cinemas: Ettumanoor",
    "VenueAddress": "State Highway 32, Ettumanoor, Near Needs Supermarket, Ettumanoor, Kerala 686631, India",
    "City": "Ettumanoor",
    "State": "Kerala",
    "RegionCode": "ETTU",
    "SubRegionCode": "ETTU",
    "Latitude": "9.6688",
    "Longitude": "76.5507",
    "AvailableFormats": "2D"
  },
  "NKCL": {
    "VenueCode": "NKCL",
    "VenueName": "A Nakshatra Cinemas: Lakhimpur",
    "VenueAddress": "Adarsha Market Complex, North Lakhimpur, CD Road, Near State Bank of India, Lakhimpur, Assam 787001, India",
    "City": "Lakhimpur",
    "State": "Assam",
    "RegionCode": "LAHA",
    "SubRegionCode": "LAHA",
    "Latitude": "27.2374",
    "Longitude": "94.1065",
    "AvailableFormats": "2D"
  },
  "BTLR": {
    "VenueCode": "BTLR",
    "VenueName": "Biswa Talkies: Lakhimpur",
    "VenueAddress": "Biswa Talkies, NH 15, North Lakhimpur, Lakhimpur, Assam 787001, India",
    "City": "Lakhimpur",
    "State": "Assam",
    "RegionCode": "LAHA",
    "SubRegionCode": "LAHA",
    "Latitude": "27.2365",
    "Longitude": "94.1042",
    "AvailableFormats": "2D"
  },
  "GOCL": {
    "VenueCode": "GOCL",
    "VenueName": "Gold Cinema: Lakhimpur",
    "VenueAddress": "North Lakhimpur, Thakurbari Road, Lakhimpur, Assam 787001, India",
    "City": "Lakhimpur",
    "State": "Assam",
    "RegionCode": "LAHA",
    "SubRegionCode": "LAHA",
    "Latitude": "27.2362",
    "Longitude": "94.1016",
    "AvailableFormats": "2D"
  },
  "MIRN": {
    "VenueCode": "MIRN",
    "VenueName": "Miraj Cinemas: NBC, Nandurbar",
    "VenueAddress": "Nandurbar Business Centre, S. No 387/2, Surat Bypass Road, Nandurbar, Maharashtra 425412, India",
    "City": "Nandurbar",
    "State": "Maharashtra",
    "RegionCode": "NDNB",
    "SubRegionCode": "NDNB",
    "Latitude": "21.3537",
    "Longitude": "74.2424",
    "AvailableFormats": "2D|3D"
  },
  "THEC": {
    "VenueCode": "THEC",
    "VenueName": "The Cinema: Kalyanpur",
    "VenueAddress": "Kalyanpur Block, East Champaran, Motihari, Bihar 845413, India",
    "City": "Motihari",
    "State": "Bihar",
    "RegionCode": "MOTI",
    "SubRegionCode": "MOTI",
    "Latitude": "26.4348",
    "Longitude": "84.9347",
    "AvailableFormats": "2D"
  },
  "SPPB": {
    "VenueCode": "SPPB",
    "VenueName": "Sangeet Cinema: Motihari",
    "VenueAddress": "Chatauni Chowk, Refugee Colony, Motihari, Bihar 845401, India",
    "City": "Motihari",
    "State": "Bihar",
    "RegionCode": "MOTI",
    "SubRegionCode": "MOTI",
    "Latitude": "26.6474",
    "Longitude": "84.9297",
    "AvailableFormats": "2D"
  },
  "PMMM": {
    "VenueCode": "PMMM",
    "VenueName": "Payal Cinema: Motihari",
    "VenueAddress": "Refugee Colony, Motihari-Madubanighat-Pakridayal Road, Motihari, Bihar 845401, India",
    "City": "Motihari",
    "State": "Bihar",
    "RegionCode": "MOTI",
    "SubRegionCode": "MOTI",
    "Latitude": "26.6464",
    "Longitude": "84.9291",
    "AvailableFormats": "2D"
  },
  "GGMC": {
    "VenueCode": "GGMC",
    "VenueName": "Prime Cinemas Shiv Mandir: Hanumangarh",
    "VenueAddress": "Rajasthan State, Shopat Singh Marg, Model Town, Hanumangarh, Rajasthan 335512, India",
    "City": "Hanumangarh",
    "State": "Rajasthan",
    "RegionCode": "HNMG",
    "SubRegionCode": "HNMG",
    "Latitude": "29.6216",
    "Longitude": "74.2862",
    "AvailableFormats": "2D"
  },
  "AVSR": {
    "VenueCode": "AVSR",
    "VenueName": "AVS Cinema: Rajasthan",
    "VenueAddress": "Factory Outlet, NH54, Hanumangarh Sangria Highway, Manaksar, 2 Std, Hanumangarh, Rajasthan 335513, India",
    "City": "Hanumangarh",
    "State": "Rajasthan",
    "RegionCode": "HNMG",
    "SubRegionCode": "HNMG",
    "Latitude": "29.6609",
    "Longitude": "74.3662",
    "AvailableFormats": "2D"
  },
  "RDMH": {
    "VenueCode": "RDMH",
    "VenueName": "Ramdas Movie House: Thrissur",
    "VenueAddress": "M.G. Road, Thrissur, Thrissur, Kerala 680001, India",
    "City": "Thrissur",
    "State": "Kerala",
    "RegionCode": "THSR",
    "SubRegionCode": "THSR",
    "Latitude": "10.5245",
    "Longitude": "76.2109",
    "AvailableFormats": "2D"
  },
  "JSRS": {
    "VenueCode": "JSRS",
    "VenueName": "Jos Theatre 4K RGB Laser Atmos: Thrissur",
    "VenueAddress": "Kuruppam, Round South, Near Municipal Stand, Thrissur, Kerala 680001, India",
    "City": "Thrissur",
    "State": "Kerala",
    "RegionCode": "THSR",
    "SubRegionCode": "THSR",
    "Latitude": "10.5224",
    "Longitude": "76.2155",
    "AvailableFormats": "2D"
  },
  "VKGP": {
    "VenueCode": "VKGP",
    "VenueName": "VKG CINEMAS 4K RGB LASER DOLBY ATMOS: PAVARATTY",
    "VenueAddress": "Chavara Shopping Complex, Pavaratty, Guruvayur, Kerala 680507, India",
    "City": "Guruvayur",
    "State": "Kerala",
    "RegionCode": "THSR",
    "SubRegionCode": "THSR",
    "Latitude": "10.5653",
    "Longitude": "76.0626",
    "AvailableFormats": "2D"
  },
  "ACRT": {
    "VenueCode": "ACRT",
    "VenueName": "Acchi Reddy Theater A/c Dolby DTS: Haliya",
    "VenueAddress": "NH 565, Near ICICI Bank ATM, Haliya, Telangana 508377, India",
    "City": "Haliya",
    "State": "Telangana",
    "RegionCode": "HALI",
    "SubRegionCode": "HALI",
    "Latitude": "16.7799",
    "Longitude": "79.3224",
    "AvailableFormats": "2D"
  },
  "GCBA": {
    "VenueCode": "GCBA",
    "VenueName": "GE Cinemas: Barnala",
    "VenueAddress": "Bathinda Road, Near T-Point, Barnala, Punjab 148101, India",
    "City": "Barnala",
    "State": "Punjab",
    "RegionCode": "BAR",
    "SubRegionCode": "BAR",
    "Latitude": "30.2621",
    "Longitude": "75.2356",
    "AvailableFormats": "2D"
  },
  "GTCP": {
    "VenueCode": "GTCP",
    "VenueName": "Gayatri Theatre: Channarayapatna",
    "VenueAddress": "Renukamba Road, Near Channarayapatna Post Office, Channarayapatna, Karnataka 573116, India",
    "City": "Channarayapatna",
    "State": "Karnataka",
    "RegionCode": "CHNN",
    "SubRegionCode": "CHNN",
    "Latitude": "12.9053",
    "Longitude": "76.3896",
    "AvailableFormats": "2D"
  },
  "AKFC": {
    "VenueCode": "AKFC",
    "VenueName": "Alakode Film City 4K Dolby Atmos",
    "VenueAddress": "Kottayadu Kavala, Malabar Hill Highway, Near St.Marys Forane Church, Alakode, Kerala 670571, India",
    "City": "Alakode",
    "State": "Kerala",
    "RegionCode": "ALAK",
    "SubRegionCode": "ALAK",
    "Latitude": "12.1785",
    "Longitude": "75.4649",
    "AvailableFormats": "2D"
  },
  "INCS": {
    "VenueCode": "INCS",
    "VenueName": "INOX: Cuttack SGBL Square Mall",
    "VenueAddress": "SGBL Square,Town Hall Road, Unit No. 15, Choudhury Bazar, Cuttack, Odisha 753009, India",
    "City": "Cuttack",
    "State": "Odisha",
    "RegionCode": "CUTT",
    "SubRegionCode": "CUTT",
    "Latitude": "20.4613",
    "Longitude": "85.8691",
    "AvailableFormats": "3D|2D"
  },
  "SMCK": {
    "VenueCode": "SMCK",
    "VenueName": "Sangam Cineplex: Cuttack",
    "VenueAddress": "Sangam, Mahatab Rd, Badambadi Colony, Near JMG Hero Motorcorp, Cuttack, Odisha 753009, India",
    "City": "Cuttack",
    "State": "Odisha",
    "RegionCode": "CUTT",
    "SubRegionCode": "CUTT",
    "Latitude": "20.4604",
    "Longitude": "85.8866",
    "AvailableFormats": "2D"
  },
  "BRUN": {
    "VenueCode": "BRUN",
    "VenueName": "Brundaban (4k, Dolby Atmos 64 Channel Sounds)",
    "VenueAddress": "Bajrakabati Road, Siba Bazar, Near Bank Of India, Cuttack, Odisha 753001, India",
    "City": "Cuttack",
    "State": "Odisha",
    "RegionCode": "CUTT",
    "SubRegionCode": "CUTT",
    "Latitude": "20.465",
    "Longitude": "85.8852",
    "AvailableFormats": "2D|3D"
  },
  "RPPC": {
    "VenueCode": "RPPC",
    "VenueName": "Raghu Picture Palace: Cherla",
    "VenueAddress": "Near Srinivas Mobiles, SH 12, Cherla, Telangana 507133, India",
    "City": "Cherla",
    "State": "Telangana",
    "RegionCode": "CHRL",
    "SubRegionCode": "CHRL",
    "Latitude": "18.0799",
    "Longitude": "80.8238",
    "AvailableFormats": "2D"
  },
  "PAYD": {
    "VenueCode": "PAYD",
    "VenueName": "Parameswari A/C DTS: Yellamanchili",
    "VenueAddress": "Shivalayam Road, Near Niharika Steel Shop, Yellamanchili, Andhra Pradesh 531055, India",
    "City": "Yellamanchili",
    "State": "Andhra Pradesh",
    "RegionCode": "YLMN",
    "SubRegionCode": "YLMN",
    "Latitude": "17.5497",
    "Longitude": "82.8519",
    "AvailableFormats": "2D"
  },
  "SVVT": {
    "VenueCode": "SVVT",
    "VenueName": "Venkateswara AC Christie Laser 2K Dolby:Vissanapet",
    "VenueAddress": "CPM Office Road, Next to Lavanya Cloth and  RM Showroom, Vissannapeta, Andhra Pradesh 521215, India",
    "City": "Vissannapeta",
    "State": "Andhra Pradesh",
    "RegionCode": "VSNP",
    "SubRegionCode": "VSNP",
    "Latitude": "16.9405",
    "Longitude": "80.7834",
    "AvailableFormats": "2D"
  },
  "RNCC": {
    "VenueCode": "RNCC",
    "VenueName": "Raj Cineplex: Karjat",
    "VenueAddress": "Opposite Amba Mata Mandir, Aamrai, Karjat, Maharashtra 410201, India",
    "City": "Karjat",
    "State": "Maharashtra",
    "RegionCode": "KART",
    "SubRegionCode": "KART",
    "Latitude": "18.9091",
    "Longitude": "73.3269",
    "AvailableFormats": "2D"
  },
  "PCRC": {
    "VenueCode": "PCRC",
    "VenueName": "PVR: City Center, Raipur",
    "VenueAddress": "2nd Floor, City Center Mall, Devendra Nagar, Pandri, Opposite EPF Office, Raipur, Chhattisgarh 492001, India",
    "City": "Raipur",
    "State": "Chhattisgarh",
    "RegionCode": "RAIPUR",
    "SubRegionCode": "RAIPUR",
    "Latitude": "21.2551",
    "Longitude": "81.6463",
    "AvailableFormats": "2D|3D"
  },
  "PMRM": {
    "VenueCode": "PMRM",
    "VenueName": "PVR: Magneto Mall, Raipur",
    "VenueAddress": "2nd floor, Magneto The Mall, GE Road, NH6, Opposite City Mall, Raipur, Chhattisgarh 492001, India",
    "City": "Raipur",
    "State": "Chhattisgarh",
    "RegionCode": "RAIPUR",
    "SubRegionCode": "RAIPUR",
    "Latitude": "21.2398",
    "Longitude": "81.684",
    "AvailableFormats": "2D|3D"
  },
  "CCRP": {
    "VenueCode": "CCRP",
    "VenueName": "Colors Cinemas: Colors Mall, Raipur",
    "VenueAddress": "Colors Cinema, 3rd floor, Colors Mall, Pachpedi Naka, NH 43, Raipur, Chhattisgarh 492001, India",
    "City": "Raipur",
    "State": "Chhattisgarh",
    "RegionCode": "RAIPUR",
    "SubRegionCode": "RAIPUR",
    "Latitude": "21.2173",
    "Longitude": "81.6566",
    "AvailableFormats": "2D"
  },
  "INCR": {
    "VenueCode": "INCR",
    "VenueName": "INOX: Ambuja City Centre, Raipur",
    "VenueAddress": "1st Floor, Ambuja City Centre Mall, Vishan Sabha Road, Mowa, Near Saddu Nala, Raipur, Chhattisgarh 492007, India",
    "City": "Raipur",
    "State": "Chhattisgarh",
    "RegionCode": "RAIPUR",
    "SubRegionCode": "RAIPUR",
    "Latitude": "21.2764",
    "Longitude": "81.6873",
    "AvailableFormats": "2D|3D"
  },
  "ZTMP": {
    "VenueCode": "ZTMP",
    "VenueName": "PVR: Zora The Mall, Raipur",
    "VenueAddress": "3rd Floor, Zora the Mall, Jora, Opposite Agriculture College, Raipur, Chhattisgarh 492012, India",
    "City": "Raipur",
    "State": "Chhattisgarh",
    "RegionCode": "RAIPUR",
    "SubRegionCode": "RAIPUR",
    "Latitude": "21.246",
    "Longitude": "81.5776",
    "AvailableFormats": "2D"
  },